{"10120":{"placeName":"Tähtelä","state":"Uusimaa","city":"Inkoo","lat":59.9603,"lon":24.0545,"accuracy":null},"10140":{"placeName":"Päivölä","state":"Uusimaa","city":"Inkoo","lat":59.9603,"lon":24.0545,"accuracy":null},"10160":{"placeName":"Degerby","state":"Uusimaa","city":"Inkoo","lat":59.9603,"lon":24.0545,"accuracy":null},"10210":{"placeName":"Inkoo","state":"Uusimaa","city":"Inkoo","lat":59.9603,"lon":24.0545,"accuracy":null},"10211":{"placeName":"Inkoo","state":"Uusimaa","city":"Inkoo","lat":59.9603,"lon":24.0545,"accuracy":null},"10230":{"placeName":"Inkoo As","state":"Uusimaa","city":"Inkoo","lat":59.9603,"lon":24.0545,"accuracy":null},"10250":{"placeName":"Fagervik","state":"Uusimaa","city":"Inkoo","lat":59.9603,"lon":24.0545,"accuracy":null},"10270":{"placeName":"Barösund","state":"Uusimaa","city":"Inkoo","lat":59.9603,"lon":24.0545,"accuracy":null},"10300":{"placeName":"Karjaa","state":"Uusimaa","city":"Raasepori","lat":59.9377,"lon":23.4503,"accuracy":null},"10301":{"placeName":"Karjaa","state":"Uusimaa","city":"Raasepori","lat":59.9377,"lon":23.4503,"accuracy":null},"10305":{"placeName":"Smartpost","state":"Uusimaa","city":"Raasepori","lat":59.9377,"lon":23.4503,"accuracy":null},"10320":{"placeName":"Karjaa","state":"Uusimaa","city":"Raasepori","lat":59.9377,"lon":23.4503,"accuracy":null},"10330":{"placeName":"Pinjainen","state":"Uusimaa","city":"Raasepori","lat":59.9377,"lon":23.4503,"accuracy":null},"10350":{"placeName":"Meltola","state":"Uusimaa","city":"Raasepori","lat":59.9377,"lon":23.4503,"accuracy":null},"10360":{"placeName":"Mustio","state":"Uusimaa","city":"Raasepori","lat":59.9377,"lon":23.4503,"accuracy":null},"10380":{"placeName":"Kaunislahti","state":"Uusimaa","city":"Raasepori","lat":59.9377,"lon":23.4503,"accuracy":null},"10410":{"placeName":"Ċminnefors","state":"Uusimaa","city":"Raasepori","lat":59.9377,"lon":23.4503,"accuracy":null},"10420":{"placeName":"Pohjankuru","state":"Uusimaa","city":"Raasepori","lat":59.9377,"lon":23.4503,"accuracy":null},"10421":{"placeName":"Pohjankuru","state":"Uusimaa","city":"Raasepori","lat":59.9377,"lon":23.4503,"accuracy":null},"10440":{"placeName":"Bollsta","state":"Uusimaa","city":"Raasepori","lat":59.9377,"lon":23.4503,"accuracy":null},"10470":{"placeName":"Fiskari","state":"Uusimaa","city":"Raasepori","lat":59.9377,"lon":23.4503,"accuracy":null},"10480":{"placeName":"Antskog","state":"Uusimaa","city":"Raasepori","lat":59.9377,"lon":23.4503,"accuracy":null},"10520":{"placeName":"Tenhola","state":"Uusimaa","city":"Raasepori","lat":59.9377,"lon":23.4503,"accuracy":null},"10570":{"placeName":"Bromarv","state":"Uusimaa","city":"Raasepori","lat":59.9377,"lon":23.4503,"accuracy":null},"10600":{"placeName":"Tammisaari","state":"Uusimaa","city":"Raasepori","lat":59.9377,"lon":23.4503,"accuracy":null},"10601":{"placeName":"Tammisaari","state":"Uusimaa","city":"Raasepori","lat":59.9377,"lon":23.4503,"accuracy":null},"10605":{"placeName":"Smartpost","state":"Uusimaa","city":"Raasepori","lat":59.9377,"lon":23.4503,"accuracy":null},"10611":{"placeName":"Raasepori","state":"Uusimaa","city":"Raasepori","lat":59.9377,"lon":23.4503,"accuracy":null},"10620":{"placeName":"Tammisaari","state":"Uusimaa","city":"Raasepori","lat":59.9377,"lon":23.4503,"accuracy":null},"10640":{"placeName":"Dragsvik","state":"Uusimaa","city":"Raasepori","lat":59.9377,"lon":23.4503,"accuracy":null},"10641":{"placeName":"Dragsvik","state":"Uusimaa","city":"Raasepori","lat":59.9377,"lon":23.4503,"accuracy":null},"10650":{"placeName":"Tammisaari","state":"Uusimaa","city":"Raasepori","lat":59.9377,"lon":23.4503,"accuracy":null},"10660":{"placeName":"Tammisaari","state":"Uusimaa","city":"Raasepori","lat":59.9377,"lon":23.4503,"accuracy":null},"10680":{"placeName":"Skogby","state":"Uusimaa","city":"Raasepori","lat":59.9377,"lon":23.4503,"accuracy":null},"10710":{"placeName":"Snappertuna","state":"Uusimaa","city":"Raasepori","lat":59.9377,"lon":23.4503,"accuracy":null},"10820":{"placeName":"Lappohja","state":"Uusimaa","city":"Hanko","lat":59.766,"lon":23.0002,"accuracy":null},"10900":{"placeName":"Hanko","state":"Uusimaa","city":"Hanko","lat":59.766,"lon":23.0002,"accuracy":null},"10901":{"placeName":"Hanko","state":"Uusimaa","city":"Hanko","lat":59.766,"lon":23.0002,"accuracy":null},"10905":{"placeName":"Smartpost","state":"Uusimaa","city":"Hanko","lat":59.766,"lon":23.0002,"accuracy":null},"10940":{"placeName":"Hangonkylä","state":"Uusimaa","city":"Hanko","lat":59.766,"lon":23.0002,"accuracy":null},"10960":{"placeName":"Hanko Pohjoinen","state":"Uusimaa","city":"Hanko","lat":59.766,"lon":23.0002,"accuracy":null},"20006":{"placeName":"Vastauslähetys","state":"Uusimaa","city":"Helsinki","lat":60.1136,"lon":25.0173,"accuracy":1},"33006":{"placeName":"Vastauslähetys","state":"Uusimaa","city":"Helsinki","lat":60.1136,"lon":25.0173,"accuracy":null},"40006":{"placeName":"Vastauslähetys","state":"Uusimaa","city":"Helsinki","lat":60.1136,"lon":25.0173,"accuracy":null},"47350":{"placeName":"Kimonkylä","state":"Uusimaa","city":"Lapinjärvi","lat":60.6374,"lon":26.1983,"accuracy":null},"53006":{"placeName":"Vastauslähetys","state":"Uusimaa","city":"Helsinki","lat":60.1136,"lon":25.0173,"accuracy":null},"60006":{"placeName":"Vastauslähetys","state":"Uusimaa","city":"Helsinki","lat":60.1136,"lon":25.0173,"accuracy":null},"70006":{"placeName":"Vastauslähetys","state":"Uusimaa","city":"Helsinki","lat":60.1136,"lon":25.0173,"accuracy":null},"90006":{"placeName":"Vastauslähetys","state":"Uusimaa","city":"Helsinki","lat":60.1136,"lon":25.0173,"accuracy":1},"00002":{"placeName":"Helsinki","state":"Uusimaa","city":"Helsinki","lat":60.2257,"lon":24.8636,"accuracy":1},"00003":{"placeName":"Vastauslähetys","state":"Uusimaa","city":"Helsinki","lat":60.2257,"lon":24.8636,"accuracy":1},"00006":{"placeName":"Vastauslähetys","state":"Uusimaa","city":"Helsinki","lat":60.2257,"lon":24.8636,"accuracy":1},"00009":{"placeName":"Digitointi","state":"Uusimaa","city":"Helsinki","lat":60.2257,"lon":24.8636,"accuracy":1},"00011":{"placeName":"Posti","state":"Uusimaa","city":"Helsinki","lat":60.2257,"lon":24.8636,"accuracy":1},"00012":{"placeName":"Fujitsu","state":"Uusimaa","city":"Helsinki","lat":60.2257,"lon":24.8636,"accuracy":1},"00013":{"placeName":"Op","state":"Uusimaa","city":"Helsinki","lat":60.2257,"lon":24.8636,"accuracy":1},"00014":{"placeName":"Helsingin Yliopisto","state":"Uusimaa","city":"Helsinki","lat":60.2257,"lon":24.8636,"accuracy":1},"00015":{"placeName":"Otavamedia","state":"Uusimaa","city":"Helsinki","lat":60.2257,"lon":24.8636,"accuracy":1},"00016":{"placeName":"Kesko","state":"Uusimaa","city":"Helsinki","lat":60.2257,"lon":24.8636,"accuracy":1},"00017":{"placeName":"Fennia","state":"Uusimaa","city":"Helsinki","lat":60.2257,"lon":24.8636,"accuracy":1},"00018":{"placeName":"Ilmarinen","state":"Uusimaa","city":"Helsinki","lat":60.2257,"lon":24.8636,"accuracy":1},"00019":{"placeName":"Ssc","state":"Uusimaa","city":"Helsinki","lat":60.2257,"lon":24.8636,"accuracy":1},"00020":{"placeName":"Nordea","state":"Uusimaa","city":"Helsinki","lat":60.2257,"lon":24.8636,"accuracy":1},"00021":{"placeName":"Laskutus","state":"Uusimaa","city":"Helsinki","lat":60.2257,"lon":24.8636,"accuracy":1},"00022":{"placeName":"Tilastokeskus","state":"Uusimaa","city":"Helsinki","lat":60.2257,"lon":24.8636,"accuracy":1},"00023":{"placeName":"Valtioneuvosto","state":"Uusimaa","city":"Helsinki","lat":60.2257,"lon":24.8636,"accuracy":1},"00024":{"placeName":"Yleisradio","state":"Uusimaa","city":"Helsinki","lat":60.2257,"lon":24.8636,"accuracy":1},"00025":{"placeName":"If","state":"Uusimaa","city":"Helsinki","lat":60.2257,"lon":24.8636,"accuracy":1},"00026":{"placeName":"Basware","state":"Uusimaa","city":"Helsinki","lat":60.2257,"lon":24.8636,"accuracy":1},"00029":{"placeName":"Hus","state":"Uusimaa","city":"Helsinki","lat":60.2257,"lon":24.8636,"accuracy":1},"00030":{"placeName":"Iiris","state":"Uusimaa","city":"Helsinki","lat":60.2257,"lon":24.8636,"accuracy":1},"00031":{"placeName":"Ge","state":"Uusimaa","city":"Helsinki","lat":60.2257,"lon":24.8636,"accuracy":1},"00033":{"placeName":"Mtv","state":"Uusimaa","city":"Helsinki","lat":60.2257,"lon":24.8636,"accuracy":1},"00034":{"placeName":"Fimea","state":"Uusimaa","city":"Helsinki","lat":60.2257,"lon":24.8636,"accuracy":1},"00036":{"placeName":"Diners Club","state":"Uusimaa","city":"Helsinki","lat":60.2257,"lon":24.8636,"accuracy":1},"00037":{"placeName":"Eurocard","state":"Uusimaa","city":"Helsinki","lat":60.2257,"lon":24.8636,"accuracy":1},"00038":{"placeName":"Cgi","state":"Uusimaa","city":"Helsinki","lat":60.2257,"lon":24.8636,"accuracy":1},"00039":{"placeName":"Valio","state":"Uusimaa","city":"Helsinki","lat":60.2257,"lon":24.8636,"accuracy":1},"00040":{"placeName":"Sanoma","state":"Uusimaa","city":"Helsinki","lat":60.2257,"lon":24.8636,"accuracy":1},"00041":{"placeName":"Elo","state":"Uusimaa","city":"Helsinki","lat":60.2257,"lon":24.8636,"accuracy":1},"00042":{"placeName":"Itapsa","state":"Uusimaa","city":"Helsinki","lat":60.2257,"lon":24.8636,"accuracy":1},"00043":{"placeName":"Nordic Morning","state":"Uusimaa","city":"Helsinki","lat":60.2257,"lon":24.8636,"accuracy":1},"00044":{"placeName":"Lm Info","state":"Uusimaa","city":"Helsinki","lat":60.2257,"lon":24.8636,"accuracy":1},"00045":{"placeName":"Nokia Group","state":"Uusimaa","city":"Helsinki","lat":60.2257,"lon":24.8636,"accuracy":1},"00046":{"placeName":"Accountor","state":"Uusimaa","city":"Helsinki","lat":60.2257,"lon":24.8636,"accuracy":1},"00047":{"placeName":"Visma","state":"Uusimaa","city":"Helsinki","lat":60.2257,"lon":24.8636,"accuracy":1},"00048":{"placeName":"Fortum","state":"Uusimaa","city":"Helsinki","lat":60.2257,"lon":24.8636,"accuracy":1},"00050":{"placeName":"Nets","state":"Uusimaa","city":"Helsinki","lat":60.2257,"lon":24.8636,"accuracy":1},"00051":{"placeName":"Sonera","state":"Uusimaa","city":"Helsinki","lat":60.2257,"lon":24.8636,"accuracy":1},"00052":{"placeName":"Vero","state":"Uusimaa","city":"Helsinki","lat":60.2257,"lon":24.8636,"accuracy":1},"00053":{"placeName":"Vero","state":"Uusimaa","city":"Helsinki","lat":60.2257,"lon":24.8636,"accuracy":1},"00054":{"placeName":"Valtiokonttori","state":"Uusimaa","city":"Helsinki","lat":60.2257,"lon":24.8636,"accuracy":1},"00057":{"placeName":"M-Brain","state":"Uusimaa","city":"Helsinki","lat":60.2257,"lon":24.8636,"accuracy":1},"00058":{"placeName":"Santander","state":"Uusimaa","city":"Helsinki","lat":60.2257,"lon":24.8636,"accuracy":1},"00060":{"placeName":"Tehy","state":"Uusimaa","city":"Helsinki","lat":60.2257,"lon":24.8636,"accuracy":1},"00061":{"placeName":"Elisa","state":"Uusimaa","city":"Helsinki","lat":60.2257,"lon":24.8636,"accuracy":1},"00062":{"placeName":"Skannaus","state":"Uusimaa","city":"Helsinki","lat":60.2257,"lon":24.8636,"accuracy":1},"00063":{"placeName":"Laskunet","state":"Uusimaa","city":"Helsinki","lat":60.2257,"lon":24.8636,"accuracy":1},"00064":{"placeName":"Administer","state":"Uusimaa","city":"Helsinki","lat":60.2257,"lon":24.8636,"accuracy":1},"00065":{"placeName":"Eläketurvakeskus","state":"Uusimaa","city":"Helsinki","lat":60.2257,"lon":24.8636,"accuracy":1},"00066":{"placeName":"Hsy","state":"Uusimaa","city":"Helsinki","lat":60.2257,"lon":24.8636,"accuracy":1},"00068":{"placeName":"Caruna","state":"Uusimaa","city":"Helsinki","lat":60.2257,"lon":24.8636,"accuracy":1},"00070":{"placeName":"American Express","state":"Uusimaa","city":"Helsinki","lat":60.2257,"lon":24.8636,"accuracy":1},"00071":{"placeName":"Ostolaskut","state":"Uusimaa","city":"Helsinki","lat":60.2257,"lon":24.8636,"accuracy":1},"00075":{"placeName":"Danske Bank","state":"Uusimaa","city":"Helsinki","lat":60.2257,"lon":24.8636,"accuracy":1},"00076":{"placeName":"Aalto","state":"Uusimaa","city":"Helsinki","lat":60.2257,"lon":24.8636,"accuracy":1},"00077":{"placeName":"Hsl","state":"Uusimaa","city":"Helsinki","lat":60.2257,"lon":24.8636,"accuracy":1},"00079":{"placeName":"Metropolia","state":"Uusimaa","city":"Helsinki","lat":60.2257,"lon":24.8636,"accuracy":1},"00080":{"placeName":"Elenia","state":"Uusimaa","city":"Helsinki","lat":60.2257,"lon":24.8636,"accuracy":1},"00081":{"placeName":"A-Lehdet","state":"Uusimaa","city":"Helsinki","lat":60.2257,"lon":24.8636,"accuracy":1},"00088":{"placeName":"S-Ryhmä","state":"Uusimaa","city":"Helsinki","lat":60.2257,"lon":24.8636,"accuracy":1},"00089":{"placeName":"Sanoma","state":"Uusimaa","city":"Helsinki","lat":60.2257,"lon":24.8636,"accuracy":1},"00090":{"placeName":"Helen","state":"Uusimaa","city":"Helsinki","lat":60.2257,"lon":24.8636,"accuracy":1},"00093":{"placeName":"Valo","state":"Uusimaa","city":"Helsinki","lat":60.2257,"lon":24.8636,"accuracy":1},"00095":{"placeName":"Neste","state":"Uusimaa","city":"Espoo","lat":60.1641,"lon":24.7136,"accuracy":1},"00097":{"placeName":"Taideyliopisto","state":"Uusimaa","city":"Helsinki","lat":60.2257,"lon":24.8636,"accuracy":1},"00098":{"placeName":"Varma","state":"Uusimaa","city":"Helsinki","lat":60.2257,"lon":24.8636,"accuracy":1},"00099":{"placeName":"Helsingin Kaupunki","state":"Uusimaa","city":"Helsinki","lat":60.2257,"lon":24.8636,"accuracy":1},"00100":{"placeName":"Helsinki","state":"Uusimaa","city":"Helsinki","lat":60.2257,"lon":24.8636,"accuracy":1},"00101":{"placeName":"Helsinki","state":"Uusimaa","city":"Helsinki","lat":60.2257,"lon":24.8636,"accuracy":1},"00102":{"placeName":"Eduskunta","state":"Uusimaa","city":"Helsinki","lat":60.2257,"lon":24.8636,"accuracy":1},"00105":{"placeName":"Smartpost","state":"Uusimaa","city":"Helsinki","lat":60.2257,"lon":24.8636,"accuracy":1},"00107":{"placeName":"Smartpost","state":"Uusimaa","city":"Helsinki","lat":60.2257,"lon":24.8636,"accuracy":1},"00120":{"placeName":"Helsinki","state":"Uusimaa","city":"Helsinki","lat":60.2257,"lon":24.8636,"accuracy":1},"00121":{"placeName":"Helsinki","state":"Uusimaa","city":"Helsinki","lat":60.2257,"lon":24.8636,"accuracy":1},"00125":{"placeName":"Smartpost","state":"Uusimaa","city":"Helsinki","lat":60.2257,"lon":24.8636,"accuracy":1},"00130":{"placeName":"Helsinki","state":"Uusimaa","city":"Helsinki","lat":60.2257,"lon":24.8636,"accuracy":1},"00131":{"placeName":"Helsinki","state":"Uusimaa","city":"Helsinki","lat":60.2257,"lon":24.8636,"accuracy":1},"00135":{"placeName":"Smartpost","state":"Uusimaa","city":"Helsinki","lat":60.2257,"lon":24.8636,"accuracy":1},"00140":{"placeName":"Helsinki","state":"Uusimaa","city":"Helsinki","lat":60.2257,"lon":24.8636,"accuracy":1},"00141":{"placeName":"Helsinki","state":"Uusimaa","city":"Helsinki","lat":60.2257,"lon":24.8636,"accuracy":1},"00150":{"placeName":"Helsinki","state":"Uusimaa","city":"Helsinki","lat":60.2257,"lon":24.8636,"accuracy":1},"00151":{"placeName":"Helsinki","state":"Uusimaa","city":"Helsinki","lat":60.2257,"lon":24.8636,"accuracy":1},"00155":{"placeName":"Smartpost","state":"Uusimaa","city":"Helsinki","lat":60.2257,"lon":24.8636,"accuracy":1},"00160":{"placeName":"Helsinki","state":"Uusimaa","city":"Helsinki","lat":60.2257,"lon":24.8636,"accuracy":1},"00161":{"placeName":"Helsinki","state":"Uusimaa","city":"Helsinki","lat":60.2257,"lon":24.8636,"accuracy":1},"00170":{"placeName":"Helsinki","state":"Uusimaa","city":"Helsinki","lat":60.2257,"lon":24.8636,"accuracy":1},"00171":{"placeName":"Helsinki","state":"Uusimaa","city":"Helsinki","lat":60.2257,"lon":24.8636,"accuracy":1},"00180":{"placeName":"Helsinki","state":"Uusimaa","city":"Helsinki","lat":60.2257,"lon":24.8636,"accuracy":1},"00181":{"placeName":"Helsinki","state":"Uusimaa","city":"Helsinki","lat":60.2257,"lon":24.8636,"accuracy":1},"00185":{"placeName":"Smartpost","state":"Uusimaa","city":"Helsinki","lat":60.2257,"lon":24.8636,"accuracy":1},"00187":{"placeName":"Smartpost","state":"Uusimaa","city":"Helsinki","lat":60.2257,"lon":24.8636,"accuracy":1},"00190":{"placeName":"Helsinki","state":"Uusimaa","city":"Helsinki","lat":60.2257,"lon":24.8636,"accuracy":1},"00191":{"placeName":"Helsinki","state":"Uusimaa","city":"Helsinki","lat":60.2257,"lon":24.8636,"accuracy":1},"00200":{"placeName":"Helsinki","state":"Uusimaa","city":"Helsinki","lat":60.2257,"lon":24.8636,"accuracy":1},"00201":{"placeName":"Helsinki","state":"Uusimaa","city":"Helsinki","lat":60.2257,"lon":24.8636,"accuracy":1},"00210":{"placeName":"Helsinki","state":"Uusimaa","city":"Helsinki","lat":60.2257,"lon":24.8636,"accuracy":1},"00211":{"placeName":"Helsinki","state":"Uusimaa","city":"Helsinki","lat":60.2257,"lon":24.8636,"accuracy":1},"00215":{"placeName":"Smartpost","state":"Uusimaa","city":"Helsinki","lat":60.2257,"lon":24.8636,"accuracy":1},"00220":{"placeName":"Helsinki","state":"Uusimaa","city":"Helsinki","lat":60.2257,"lon":24.8636,"accuracy":1},"00221":{"placeName":"Helsinki","state":"Uusimaa","city":"Helsinki","lat":60.2257,"lon":24.8636,"accuracy":1},"00225":{"placeName":"Smartpost","state":"Uusimaa","city":"Helsinki","lat":60.2257,"lon":24.8636,"accuracy":1},"00230":{"placeName":"Helsinki","state":"Uusimaa","city":"Helsinki","lat":60.2257,"lon":24.8636,"accuracy":1},"00231":{"placeName":"Helsinki","state":"Uusimaa","city":"Helsinki","lat":60.2257,"lon":24.8636,"accuracy":1},"00232":{"placeName":"Helsinki","state":"Uusimaa","city":"Helsinki","lat":60.2257,"lon":24.8636,"accuracy":1},"00235":{"placeName":"Smartpost","state":"Uusimaa","city":"Helsinki","lat":60.2257,"lon":24.8636,"accuracy":1},"00240":{"placeName":"Helsinki","state":"Uusimaa","city":"Helsinki","lat":60.2257,"lon":24.8636,"accuracy":1},"00241":{"placeName":"Helsinki","state":"Uusimaa","city":"Helsinki","lat":60.2257,"lon":24.8636,"accuracy":1},"00245":{"placeName":"Smartpost","state":"Uusimaa","city":"Helsinki","lat":60.2257,"lon":24.8636,"accuracy":1},"00250":{"placeName":"Helsinki","state":"Uusimaa","city":"Helsinki","lat":60.2257,"lon":24.8636,"accuracy":1},"00251":{"placeName":"Helsinki","state":"Uusimaa","city":"Helsinki","lat":60.2257,"lon":24.8636,"accuracy":1},"00255":{"placeName":"Smartpost","state":"Uusimaa","city":"Helsinki","lat":60.2257,"lon":24.8636,"accuracy":1},"00260":{"placeName":"Helsinki","state":"Uusimaa","city":"Helsinki","lat":60.2257,"lon":24.8636,"accuracy":1},"00270":{"placeName":"Helsinki","state":"Uusimaa","city":"Helsinki","lat":60.2257,"lon":24.8636,"accuracy":1},"00271":{"placeName":"Helsinki","state":"Uusimaa","city":"Helsinki","lat":60.2257,"lon":24.8636,"accuracy":1},"00280":{"placeName":"Helsinki","state":"Uusimaa","city":"Helsinki","lat":60.2257,"lon":24.8636,"accuracy":1},"00281":{"placeName":"Helsinki","state":"Uusimaa","city":"Helsinki","lat":60.2257,"lon":24.8636,"accuracy":1},"00290":{"placeName":"Helsinki","state":"Uusimaa","city":"Helsinki","lat":60.2257,"lon":24.8636,"accuracy":1},"00300":{"placeName":"Helsinki","state":"Uusimaa","city":"Helsinki","lat":60.2229,"lon":24.861,"accuracy":1},"00301":{"placeName":"Helsinki","state":"Uusimaa","city":"Helsinki","lat":60.2229,"lon":24.861,"accuracy":1},"00305":{"placeName":"Smartpost","state":"Uusimaa","city":"Helsinki","lat":60.2229,"lon":24.861,"accuracy":1},"00310":{"placeName":"Helsinki","state":"Uusimaa","city":"Helsinki","lat":60.2229,"lon":24.861,"accuracy":1},"00320":{"placeName":"Helsinki","state":"Uusimaa","city":"Helsinki","lat":60.2229,"lon":24.861,"accuracy":1},"00321":{"placeName":"Helsinki","state":"Uusimaa","city":"Helsinki","lat":60.2229,"lon":24.861,"accuracy":1},"00330":{"placeName":"Helsinki","state":"Uusimaa","city":"Helsinki","lat":60.2229,"lon":24.861,"accuracy":1},"00331":{"placeName":"Helsinki","state":"Uusimaa","city":"Helsinki","lat":60.2229,"lon":24.861,"accuracy":1},"00337":{"placeName":"Noutopiste","state":"Uusimaa","city":"Helsinki","lat":60.2229,"lon":24.861,"accuracy":1},"00340":{"placeName":"Helsinki","state":"Uusimaa","city":"Helsinki","lat":60.2229,"lon":24.861,"accuracy":1},"00341":{"placeName":"Helsinki","state":"Uusimaa","city":"Helsinki","lat":60.2229,"lon":24.861,"accuracy":1},"00350":{"placeName":"Helsinki","state":"Uusimaa","city":"Helsinki","lat":60.2229,"lon":24.861,"accuracy":1},"00351":{"placeName":"Helsinki","state":"Uusimaa","city":"Helsinki","lat":60.2229,"lon":24.861,"accuracy":1},"00355":{"placeName":"Smartpost","state":"Uusimaa","city":"Helsinki","lat":60.2229,"lon":24.861,"accuracy":1},"00360":{"placeName":"Helsinki","state":"Uusimaa","city":"Helsinki","lat":60.2229,"lon":24.861,"accuracy":1},"00370":{"placeName":"Helsinki","state":"Uusimaa","city":"Helsinki","lat":60.2229,"lon":24.861,"accuracy":4},"00371":{"placeName":"Helsinki","state":"Uusimaa","city":"Helsinki","lat":60.2229,"lon":24.861,"accuracy":1},"00380":{"placeName":"Helsinki","state":"Uusimaa","city":"Helsinki","lat":60.2229,"lon":24.861,"accuracy":4},"00381":{"placeName":"Helsinki","state":"Uusimaa","city":"Helsinki","lat":60.2229,"lon":24.861,"accuracy":1},"00385":{"placeName":"Smartpost","state":"Uusimaa","city":"Helsinki","lat":60.2229,"lon":24.861,"accuracy":1},"00390":{"placeName":"Helsinki","state":"Uusimaa","city":"Helsinki","lat":60.2229,"lon":24.861,"accuracy":1},"00391":{"placeName":"Helsinki","state":"Uusimaa","city":"Helsinki","lat":60.2229,"lon":24.861,"accuracy":1},"00395":{"placeName":"Smartpost","state":"Uusimaa","city":"Helsinki","lat":60.2229,"lon":24.861,"accuracy":1},"00400":{"placeName":"Helsinki","state":"Uusimaa","city":"Helsinki","lat":60.2313,"lon":24.8687,"accuracy":1},"00401":{"placeName":"Helsinki","state":"Uusimaa","city":"Helsinki","lat":60.2313,"lon":24.8687,"accuracy":1},"00405":{"placeName":"Smartpost","state":"Uusimaa","city":"Helsinki","lat":60.2313,"lon":24.8687,"accuracy":1},"00410":{"placeName":"Helsinki","state":"Uusimaa","city":"Helsinki","lat":60.2313,"lon":24.8687,"accuracy":1},"00411":{"placeName":"Helsinki","state":"Uusimaa","city":"Helsinki","lat":60.2313,"lon":24.8687,"accuracy":1},"00420":{"placeName":"Helsinki","state":"Uusimaa","city":"Helsinki","lat":60.2313,"lon":24.8687,"accuracy":1},"00421":{"placeName":"Helsinki","state":"Uusimaa","city":"Helsinki","lat":60.2313,"lon":24.8687,"accuracy":1},"00425":{"placeName":"Smartpost","state":"Uusimaa","city":"Helsinki","lat":60.2313,"lon":24.8687,"accuracy":1},"00430":{"placeName":"Helsinki","state":"Uusimaa","city":"Helsinki","lat":60.2313,"lon":24.8687,"accuracy":1},"00431":{"placeName":"Helsinki","state":"Uusimaa","city":"Helsinki","lat":60.2313,"lon":24.8687,"accuracy":1},"00440":{"placeName":"Helsinki","state":"Uusimaa","city":"Helsinki","lat":60.2313,"lon":24.8687,"accuracy":4},"00441":{"placeName":"Helsinki","state":"Uusimaa","city":"Helsinki","lat":60.2313,"lon":24.8687,"accuracy":1},"00500":{"placeName":"Helsinki","state":"Uusimaa","city":"Helsinki","lat":60.2257,"lon":24.8636,"accuracy":1},"00501":{"placeName":"Helsinki","state":"Uusimaa","city":"Helsinki","lat":60.2257,"lon":24.8636,"accuracy":1},"00507":{"placeName":"Noutopiste","state":"Uusimaa","city":"Helsinki","lat":60.2257,"lon":24.8636,"accuracy":1},"00510":{"placeName":"Helsinki","state":"Uusimaa","city":"Helsinki","lat":60.2257,"lon":24.8636,"accuracy":1},"00511":{"placeName":"Helsinki","state":"Uusimaa","city":"Helsinki","lat":60.2257,"lon":24.8636,"accuracy":1},"00515":{"placeName":"Smartpost","state":"Uusimaa","city":"Helsinki","lat":60.2257,"lon":24.8636,"accuracy":1},"00520":{"placeName":"Helsinki","state":"Uusimaa","city":"Helsinki","lat":60.2257,"lon":24.8636,"accuracy":1},"00521":{"placeName":"Helsinki","state":"Uusimaa","city":"Helsinki","lat":60.2257,"lon":24.8636,"accuracy":1},"00525":{"placeName":"Smartpost","state":"Uusimaa","city":"Helsinki","lat":60.2257,"lon":24.8636,"accuracy":1},"00530":{"placeName":"Helsinki","state":"Uusimaa","city":"Helsinki","lat":60.2257,"lon":24.8636,"accuracy":1},"00531":{"placeName":"Helsinki","state":"Uusimaa","city":"Helsinki","lat":60.2257,"lon":24.8636,"accuracy":1},"00535":{"placeName":"Smartpost","state":"Uusimaa","city":"Helsinki","lat":60.2257,"lon":24.8636,"accuracy":1},"00540":{"placeName":"Helsinki","state":"Uusimaa","city":"Helsinki","lat":60.2257,"lon":24.8636,"accuracy":1},"00550":{"placeName":"Helsinki","state":"Uusimaa","city":"Helsinki","lat":60.2257,"lon":24.8636,"accuracy":1},"00551":{"placeName":"Helsinki","state":"Uusimaa","city":"Helsinki","lat":60.2257,"lon":24.8636,"accuracy":1},"00555":{"placeName":"Smartpost","state":"Uusimaa","city":"Helsinki","lat":60.2257,"lon":24.8636,"accuracy":1},"00560":{"placeName":"Helsinki","state":"Uusimaa","city":"Helsinki","lat":60.2257,"lon":24.8636,"accuracy":1},"00561":{"placeName":"Helsinki","state":"Uusimaa","city":"Helsinki","lat":60.2257,"lon":24.8636,"accuracy":1},"00570":{"placeName":"Helsinki","state":"Uusimaa","city":"Helsinki","lat":60.2257,"lon":24.8636,"accuracy":1},"00577":{"placeName":"Noutopiste","state":"Uusimaa","city":"Helsinki","lat":60.2257,"lon":24.8636,"accuracy":1},"00580":{"placeName":"Helsinki","state":"Uusimaa","city":"Helsinki","lat":60.2257,"lon":24.8636,"accuracy":1},"00581":{"placeName":"Helsinki","state":"Uusimaa","city":"Helsinki","lat":60.2257,"lon":24.8636,"accuracy":1},"00590":{"placeName":"Helsinki","state":"Uusimaa","city":"Helsinki","lat":60.2257,"lon":24.8636,"accuracy":1},"00600":{"placeName":"Helsinki","state":"Uusimaa","city":"Helsinki","lat":60.2257,"lon":24.8636,"accuracy":1},"00601":{"placeName":"Helsinki","state":"Uusimaa","city":"Helsinki","lat":60.2257,"lon":24.8636,"accuracy":1},"00605":{"placeName":"Smartpost","state":"Uusimaa","city":"Helsinki","lat":60.2257,"lon":24.8636,"accuracy":1},"00610":{"placeName":"Helsinki","state":"Uusimaa","city":"Helsinki","lat":60.2257,"lon":24.8636,"accuracy":1},"00620":{"placeName":"Helsinki","state":"Uusimaa","city":"Helsinki","lat":60.2257,"lon":24.8636,"accuracy":1},"00621":{"placeName":"Helsinki","state":"Uusimaa","city":"Helsinki","lat":60.2257,"lon":24.8636,"accuracy":1},"00625":{"placeName":"Smartpost","state":"Uusimaa","city":"Helsinki","lat":60.2257,"lon":24.8636,"accuracy":1},"00630":{"placeName":"Helsinki","state":"Uusimaa","city":"Helsinki","lat":60.2257,"lon":24.8636,"accuracy":1},"00635":{"placeName":"Smartpost","state":"Uusimaa","city":"Helsinki","lat":60.2257,"lon":24.8636,"accuracy":1},"00640":{"placeName":"Helsinki","state":"Uusimaa","city":"Helsinki","lat":60.2257,"lon":24.8636,"accuracy":1},"00641":{"placeName":"Helsinki","state":"Uusimaa","city":"Helsinki","lat":60.2257,"lon":24.8636,"accuracy":1},"00645":{"placeName":"Smartpost","state":"Uusimaa","city":"Helsinki","lat":60.2257,"lon":24.8636,"accuracy":1},"00650":{"placeName":"Helsinki","state":"Uusimaa","city":"Helsinki","lat":60.2257,"lon":24.8636,"accuracy":1},"00660":{"placeName":"Helsinki","state":"Uusimaa","city":"Helsinki","lat":60.2257,"lon":24.8636,"accuracy":1},"00661":{"placeName":"Helsinki","state":"Uusimaa","city":"Helsinki","lat":60.2257,"lon":24.8636,"accuracy":1},"00665":{"placeName":"Smartpost","state":"Uusimaa","city":"Helsinki","lat":60.2257,"lon":24.8636,"accuracy":1},"00670":{"placeName":"Helsinki","state":"Uusimaa","city":"Helsinki","lat":60.2257,"lon":24.8636,"accuracy":1},"00671":{"placeName":"Helsinki","state":"Uusimaa","city":"Helsinki","lat":60.2257,"lon":24.8636,"accuracy":1},"00675":{"placeName":"Smartpost","state":"Uusimaa","city":"Helsinki","lat":60.2257,"lon":24.8636,"accuracy":1},"00680":{"placeName":"Helsinki","state":"Uusimaa","city":"Helsinki","lat":60.2257,"lon":24.8636,"accuracy":1},"00690":{"placeName":"Helsinki","state":"Uusimaa","city":"Helsinki","lat":60.2257,"lon":24.8636,"accuracy":1},"00700":{"placeName":"Helsinki","state":"Uusimaa","city":"Helsinki","lat":60.2257,"lon":24.8636,"accuracy":1},"00701":{"placeName":"Helsinki","state":"Uusimaa","city":"Helsinki","lat":60.2257,"lon":24.8636,"accuracy":1},"00705":{"placeName":"Smartpost","state":"Uusimaa","city":"Helsinki","lat":60.2257,"lon":24.8636,"accuracy":1},"00710":{"placeName":"Helsinki","state":"Uusimaa","city":"Helsinki","lat":60.2257,"lon":24.8636,"accuracy":1},"00711":{"placeName":"Helsinki","state":"Uusimaa","city":"Helsinki","lat":60.2257,"lon":24.8636,"accuracy":1},"00715":{"placeName":"Smartpost","state":"Uusimaa","city":"Helsinki","lat":60.2257,"lon":24.8636,"accuracy":1},"00720":{"placeName":"Helsinki","state":"Uusimaa","city":"Helsinki","lat":60.2257,"lon":24.8636,"accuracy":1},"00721":{"placeName":"Helsinki","state":"Uusimaa","city":"Helsinki","lat":60.2257,"lon":24.8636,"accuracy":1},"00725":{"placeName":"Smartpost","state":"Uusimaa","city":"Helsinki","lat":60.2257,"lon":24.8636,"accuracy":1},"00730":{"placeName":"Helsinki","state":"Uusimaa","city":"Helsinki","lat":60.2257,"lon":24.8636,"accuracy":1},"00740":{"placeName":"Helsinki","state":"Uusimaa","city":"Helsinki","lat":60.2257,"lon":24.8636,"accuracy":1},"00741":{"placeName":"Helsinki","state":"Uusimaa","city":"Helsinki","lat":60.2257,"lon":24.8636,"accuracy":1},"00750":{"placeName":"Helsinki","state":"Uusimaa","city":"Helsinki","lat":60.2257,"lon":24.8636,"accuracy":1},"00751":{"placeName":"Helsinki","state":"Uusimaa","city":"Helsinki","lat":60.2257,"lon":24.8636,"accuracy":1},"00760":{"placeName":"Helsinki","state":"Uusimaa","city":"Helsinki","lat":60.2257,"lon":24.8636,"accuracy":1},"00761":{"placeName":"Helsinki","state":"Uusimaa","city":"Helsinki","lat":60.2257,"lon":24.8636,"accuracy":1},"00765":{"placeName":"Smartpost","state":"Uusimaa","city":"Helsinki","lat":60.2257,"lon":24.8636,"accuracy":1},"00770":{"placeName":"Helsinki","state":"Uusimaa","city":"Helsinki","lat":60.2257,"lon":24.8636,"accuracy":1},"00771":{"placeName":"Helsinki","state":"Uusimaa","city":"Helsinki","lat":60.2257,"lon":24.8636,"accuracy":1},"00775":{"placeName":"Smartpost","state":"Uusimaa","city":"Helsinki","lat":60.2257,"lon":24.8636,"accuracy":1},"00777":{"placeName":"Noutopiste","state":"Uusimaa","city":"Helsinki","lat":60.2257,"lon":24.8636,"accuracy":1},"00780":{"placeName":"Helsinki","state":"Uusimaa","city":"Helsinki","lat":60.2257,"lon":24.8636,"accuracy":1},"00781":{"placeName":"Helsinki","state":"Uusimaa","city":"Helsinki","lat":60.2257,"lon":24.8636,"accuracy":1},"00785":{"placeName":"Smartpost","state":"Uusimaa","city":"Helsinki","lat":60.2257,"lon":24.8636,"accuracy":1},"00787":{"placeName":"Noutopiste","state":"Uusimaa","city":"Helsinki","lat":60.2257,"lon":24.8636,"accuracy":1},"00790":{"placeName":"Helsinki","state":"Uusimaa","city":"Helsinki","lat":60.2257,"lon":24.8636,"accuracy":1},"00791":{"placeName":"Helsinki","state":"Uusimaa","city":"Helsinki","lat":60.2257,"lon":24.8636,"accuracy":1},"00795":{"placeName":"Smartpost","state":"Uusimaa","city":"Helsinki","lat":60.2257,"lon":24.8636,"accuracy":1},"00800":{"placeName":"Helsinki","state":"Uusimaa","city":"Helsinki","lat":60.2257,"lon":24.8636,"accuracy":1},"00810":{"placeName":"Helsinki","state":"Uusimaa","city":"Helsinki","lat":60.2257,"lon":24.8636,"accuracy":1},"00811":{"placeName":"Helsinki","state":"Uusimaa","city":"Helsinki","lat":60.2257,"lon":24.8636,"accuracy":1},"00815":{"placeName":"Smartpost","state":"Uusimaa","city":"Helsinki","lat":60.2257,"lon":24.8636,"accuracy":1},"00820":{"placeName":"Helsinki","state":"Uusimaa","city":"Helsinki","lat":60.2257,"lon":24.8636,"accuracy":1},"00825":{"placeName":"Smartpost","state":"Uusimaa","city":"Helsinki","lat":60.2257,"lon":24.8636,"accuracy":1},"00830":{"placeName":"Helsinki","state":"Uusimaa","city":"Helsinki","lat":60.2257,"lon":24.8636,"accuracy":1},"00840":{"placeName":"Helsinki","state":"Uusimaa","city":"Helsinki","lat":60.2257,"lon":24.8636,"accuracy":1},"00845":{"placeName":"Smartpost","state":"Uusimaa","city":"Helsinki","lat":60.2257,"lon":24.8636,"accuracy":1},"00847":{"placeName":"Noutopiste","state":"Uusimaa","city":"Helsinki","lat":60.2257,"lon":24.8636,"accuracy":1},"00850":{"placeName":"Helsinki","state":"Uusimaa","city":"Helsinki","lat":60.2257,"lon":24.8636,"accuracy":1},"00860":{"placeName":"Helsinki","state":"Uusimaa","city":"Helsinki","lat":60.2257,"lon":24.8636,"accuracy":1},"00861":{"placeName":"Helsinki","state":"Uusimaa","city":"Helsinki","lat":60.2257,"lon":24.8636,"accuracy":1},"00870":{"placeName":"Helsinki","state":"Uusimaa","city":"Helsinki","lat":60.2257,"lon":24.8636,"accuracy":1},"00880":{"placeName":"Helsinki","state":"Uusimaa","city":"Helsinki","lat":60.2257,"lon":24.8636,"accuracy":1},"00890":{"placeName":"Helsinki","state":"Uusimaa","city":"Helsinki","lat":60.2257,"lon":24.8636,"accuracy":1},"00900":{"placeName":"Helsinki","state":"Uusimaa","city":"Helsinki","lat":60.2257,"lon":24.8636,"accuracy":1},"00905":{"placeName":"Smartpost","state":"Uusimaa","city":"Helsinki","lat":60.2257,"lon":24.8636,"accuracy":1},"00910":{"placeName":"Helsinki","state":"Uusimaa","city":"Helsinki","lat":60.2257,"lon":24.8636,"accuracy":1},"00917":{"placeName":"Noutopiste","state":"Uusimaa","city":"Helsinki","lat":60.2257,"lon":24.8636,"accuracy":1},"00920":{"placeName":"Helsinki","state":"Uusimaa","city":"Helsinki","lat":60.2257,"lon":24.8636,"accuracy":1},"00921":{"placeName":"Helsinki","state":"Uusimaa","city":"Helsinki","lat":60.2257,"lon":24.8636,"accuracy":1},"00925":{"placeName":"Smartpost","state":"Uusimaa","city":"Helsinki","lat":60.2257,"lon":24.8636,"accuracy":1},"00930":{"placeName":"Helsinki","state":"Uusimaa","city":"Helsinki","lat":60.2257,"lon":24.8636,"accuracy":1},"00931":{"placeName":"Helsinki","state":"Uusimaa","city":"Helsinki","lat":60.2257,"lon":24.8636,"accuracy":1},"00935":{"placeName":"Smartpost","state":"Uusimaa","city":"Helsinki","lat":60.2257,"lon":24.8636,"accuracy":1},"00940":{"placeName":"Helsinki","state":"Uusimaa","city":"Helsinki","lat":60.2257,"lon":24.8636,"accuracy":1},"00941":{"placeName":"Helsinki","state":"Uusimaa","city":"Helsinki","lat":60.2257,"lon":24.8636,"accuracy":1},"00945":{"placeName":"Smartpost","state":"Uusimaa","city":"Helsinki","lat":60.2257,"lon":24.8636,"accuracy":1},"00950":{"placeName":"Helsinki","state":"Uusimaa","city":"Helsinki","lat":60.2257,"lon":24.8636,"accuracy":1},"00955":{"placeName":"Smartpost","state":"Uusimaa","city":"Helsinki","lat":60.2257,"lon":24.8636,"accuracy":1},"00960":{"placeName":"Helsinki","state":"Uusimaa","city":"Helsinki","lat":60.2257,"lon":24.8636,"accuracy":1},"00965":{"placeName":"Smartpost","state":"Uusimaa","city":"Helsinki","lat":60.2257,"lon":24.8636,"accuracy":1},"00970":{"placeName":"Helsinki","state":"Uusimaa","city":"Helsinki","lat":60.2257,"lon":24.8636,"accuracy":1},"00971":{"placeName":"Helsinki","state":"Uusimaa","city":"Helsinki","lat":60.2257,"lon":24.8636,"accuracy":1},"00975":{"placeName":"Smartpost","state":"Uusimaa","city":"Helsinki","lat":60.2257,"lon":24.8636,"accuracy":1},"00980":{"placeName":"Helsinki","state":"Uusimaa","city":"Helsinki","lat":60.2257,"lon":24.8636,"accuracy":1},"00981":{"placeName":"Helsinki","state":"Uusimaa","city":"Helsinki","lat":60.2257,"lon":24.8636,"accuracy":1},"00985":{"placeName":"Smartpost","state":"Uusimaa","city":"Helsinki","lat":60.2257,"lon":24.8636,"accuracy":1},"00990":{"placeName":"Helsinki","state":"Uusimaa","city":"Helsinki","lat":60.2257,"lon":24.8636,"accuracy":1},"00995":{"placeName":"Smartpost","state":"Uusimaa","city":"Helsinki","lat":60.2257,"lon":24.8636,"accuracy":1},"01009":{"placeName":"Veikkaus","state":"Uusimaa","city":"Vantaa","lat":60.3131,"lon":24.9507,"accuracy":1},"01044":{"placeName":"Dna","state":"Uusimaa","city":"Helsinki","lat":60.1136,"lon":25.0173,"accuracy":1},"01051":{"placeName":"Laskut","state":"Uusimaa","city":"Helsinki","lat":60.1136,"lon":25.0173,"accuracy":1},"01053":{"placeName":"Finnair","state":"Uusimaa","city":"Vantaa","lat":60.3131,"lon":24.9507,"accuracy":1},"01055":{"placeName":"Iss","state":"Uusimaa","city":"Helsinki","lat":60.1136,"lon":25.0173,"accuracy":1},"01120":{"placeName":"Västerskog","state":"Uusimaa","city":"Sipoo","lat":60.2249,"lon":25.2863,"accuracy":1},"01150":{"placeName":"Söderkulla","state":"Uusimaa","city":"Sipoo","lat":60.2249,"lon":25.2863,"accuracy":1},"01151":{"placeName":"Söderkulla","state":"Uusimaa","city":"Sipoo","lat":60.2249,"lon":25.2863,"accuracy":1},"01155":{"placeName":"Smartpost","state":"Uusimaa","city":"Sipoo","lat":60.2249,"lon":25.2863,"accuracy":1},"01180":{"placeName":"Kalkkiranta","state":"Uusimaa","city":"Sipoo","lat":60.2249,"lon":25.2863,"accuracy":1},"01190":{"placeName":"Box","state":"Uusimaa","city":"Sipoo","lat":60.2249,"lon":25.2863,"accuracy":1},"01200":{"placeName":"Vantaa","state":"Uusimaa","city":"Vantaa","lat":60.3131,"lon":24.9507,"accuracy":1},"01201":{"placeName":"Vantaa","state":"Uusimaa","city":"Vantaa","lat":60.3131,"lon":24.9507,"accuracy":1},"01205":{"placeName":"Smartpost","state":"Uusimaa","city":"Vantaa","lat":60.3131,"lon":24.9507,"accuracy":1},"01207":{"placeName":"Noutopiste","state":"Uusimaa","city":"Vantaa","lat":60.3131,"lon":24.9507,"accuracy":1},"01230":{"placeName":"Vantaa","state":"Uusimaa","city":"Vantaa","lat":60.3131,"lon":24.9507,"accuracy":1},"01260":{"placeName":"Vantaa","state":"Uusimaa","city":"Vantaa","lat":60.3131,"lon":24.9507,"accuracy":1},"01261":{"placeName":"Vantaa","state":"Uusimaa","city":"Vantaa","lat":60.3131,"lon":24.9507,"accuracy":1},"01280":{"placeName":"Vantaa","state":"Uusimaa","city":"Vantaa","lat":60.3131,"lon":24.9507,"accuracy":1},"01300":{"placeName":"Vantaa","state":"Uusimaa","city":"Vantaa","lat":60.3131,"lon":24.9507,"accuracy":1},"01301":{"placeName":"Vantaa","state":"Uusimaa","city":"Vantaa","lat":60.3131,"lon":24.9507,"accuracy":1},"01305":{"placeName":"Smartpost","state":"Uusimaa","city":"Vantaa","lat":60.3131,"lon":24.9507,"accuracy":1},"01340":{"placeName":"Vantaa","state":"Uusimaa","city":"Vantaa","lat":60.3131,"lon":24.9507,"accuracy":1},"01350":{"placeName":"Vantaa","state":"Uusimaa","city":"Vantaa","lat":60.3131,"lon":24.9507,"accuracy":1},"01351":{"placeName":"Vantaa","state":"Uusimaa","city":"Vantaa","lat":60.3131,"lon":24.9507,"accuracy":1},"01360":{"placeName":"Vantaa","state":"Uusimaa","city":"Vantaa","lat":60.3131,"lon":24.9507,"accuracy":1},"01361":{"placeName":"Vantaa","state":"Uusimaa","city":"Vantaa","lat":60.3131,"lon":24.9507,"accuracy":1},"01365":{"placeName":"Smartpost","state":"Uusimaa","city":"Vantaa","lat":60.3131,"lon":24.9507,"accuracy":1},"01370":{"placeName":"Vantaa","state":"Uusimaa","city":"Vantaa","lat":60.3131,"lon":24.9507,"accuracy":1},"01380":{"placeName":"Vantaa","state":"Uusimaa","city":"Vantaa","lat":60.3131,"lon":24.9507,"accuracy":1},"01390":{"placeName":"Vantaa","state":"Uusimaa","city":"Vantaa","lat":60.3131,"lon":24.9507,"accuracy":1},"01391":{"placeName":"Vantaa","state":"Uusimaa","city":"Vantaa","lat":60.3131,"lon":24.9507,"accuracy":1},"01400":{"placeName":"Vantaa","state":"Uusimaa","city":"Vantaa","lat":60.3131,"lon":24.9507,"accuracy":1},"01405":{"placeName":"Smartpost","state":"Uusimaa","city":"Vantaa","lat":60.3131,"lon":24.9507,"accuracy":1},"01420":{"placeName":"Vantaa","state":"Uusimaa","city":"Vantaa","lat":60.3131,"lon":24.9507,"accuracy":1},"01450":{"placeName":"Vantaa","state":"Uusimaa","city":"Vantaa","lat":60.3131,"lon":24.9507,"accuracy":1},"01451":{"placeName":"Vantaa","state":"Uusimaa","city":"Vantaa","lat":60.3131,"lon":24.9507,"accuracy":1},"01455":{"placeName":"Smartpost","state":"Uusimaa","city":"Vantaa","lat":60.3131,"lon":24.9507,"accuracy":1},"01480":{"placeName":"Vantaa","state":"Uusimaa","city":"Vantaa","lat":60.3131,"lon":24.9507,"accuracy":1},"01490":{"placeName":"Vantaa","state":"Uusimaa","city":"Vantaa","lat":60.3131,"lon":24.9507,"accuracy":1},"01495":{"placeName":"Smartpost","state":"Uusimaa","city":"Vantaa","lat":60.3131,"lon":24.9507,"accuracy":1},"01510":{"placeName":"Vantaa","state":"Uusimaa","city":"Vantaa","lat":60.3131,"lon":24.9507,"accuracy":1},"01511":{"placeName":"Vantaa","state":"Uusimaa","city":"Vantaa","lat":60.3131,"lon":24.9507,"accuracy":1},"01515":{"placeName":"Smartpost","state":"Uusimaa","city":"Vantaa","lat":60.3131,"lon":24.9507,"accuracy":1},"01520":{"placeName":"Vantaa","state":"Uusimaa","city":"Vantaa","lat":60.3131,"lon":24.9507,"accuracy":1},"01525":{"placeName":"Smartpost","state":"Uusimaa","city":"Vantaa","lat":60.3131,"lon":24.9507,"accuracy":1},"01530":{"placeName":"Vantaa","state":"Uusimaa","city":"Vantaa","lat":60.3131,"lon":24.9507,"accuracy":1},"01531":{"placeName":"Vantaa","state":"Uusimaa","city":"Vantaa","lat":60.3131,"lon":24.9507,"accuracy":1},"01600":{"placeName":"Vantaa","state":"Uusimaa","city":"Vantaa","lat":60.3131,"lon":24.9507,"accuracy":1},"01601":{"placeName":"Vantaa","state":"Uusimaa","city":"Vantaa","lat":60.3131,"lon":24.9507,"accuracy":1},"01605":{"placeName":"Smartpost","state":"Uusimaa","city":"Vantaa","lat":60.3131,"lon":24.9507,"accuracy":1},"01610":{"placeName":"Vantaa","state":"Uusimaa","city":"Vantaa","lat":60.3131,"lon":24.9507,"accuracy":1},"01611":{"placeName":"Vantaa","state":"Uusimaa","city":"Vantaa","lat":60.3131,"lon":24.9507,"accuracy":1},"01615":{"placeName":"Smartpost","state":"Uusimaa","city":"Vantaa","lat":60.3131,"lon":24.9507,"accuracy":1},"01620":{"placeName":"Vantaa","state":"Uusimaa","city":"Vantaa","lat":60.3131,"lon":24.9507,"accuracy":1},"01621":{"placeName":"Vantaa","state":"Uusimaa","city":"Vantaa","lat":60.3131,"lon":24.9507,"accuracy":1},"01625":{"placeName":"Smartpost","state":"Uusimaa","city":"Vantaa","lat":60.3131,"lon":24.9507,"accuracy":1},"01630":{"placeName":"Vantaa","state":"Uusimaa","city":"Vantaa","lat":60.3131,"lon":24.9507,"accuracy":1},"01635":{"placeName":"Smartpost","state":"Uusimaa","city":"Vantaa","lat":60.3131,"lon":24.9507,"accuracy":1},"01640":{"placeName":"Vantaa","state":"Uusimaa","city":"Vantaa","lat":60.3131,"lon":24.9507,"accuracy":1},"01641":{"placeName":"Vantaa","state":"Uusimaa","city":"Vantaa","lat":60.3131,"lon":24.9507,"accuracy":1},"01650":{"placeName":"Vantaa","state":"Uusimaa","city":"Vantaa","lat":60.3131,"lon":24.9507,"accuracy":1},"01651":{"placeName":"Vantaa","state":"Uusimaa","city":"Vantaa","lat":60.3131,"lon":24.9507,"accuracy":1},"01660":{"placeName":"Vantaa","state":"Uusimaa","city":"Vantaa","lat":60.3131,"lon":24.9507,"accuracy":1},"01661":{"placeName":"Vantaa","state":"Uusimaa","city":"Vantaa","lat":60.3131,"lon":24.9507,"accuracy":1},"01665":{"placeName":"Smartpost","state":"Uusimaa","city":"Vantaa","lat":60.3131,"lon":24.9507,"accuracy":1},"01670":{"placeName":"Vantaa","state":"Uusimaa","city":"Vantaa","lat":60.3131,"lon":24.9507,"accuracy":1},"01671":{"placeName":"Vantaa","state":"Uusimaa","city":"Vantaa","lat":60.3131,"lon":24.9507,"accuracy":1},"01680":{"placeName":"Vantaa","state":"Uusimaa","city":"Vantaa","lat":60.3131,"lon":24.9507,"accuracy":1},"01690":{"placeName":"Vantaa","state":"Uusimaa","city":"Vantaa","lat":60.3131,"lon":24.9507,"accuracy":1},"01700":{"placeName":"Vantaa","state":"Uusimaa","city":"Vantaa","lat":60.3131,"lon":24.9507,"accuracy":1},"01710":{"placeName":"Vantaa","state":"Uusimaa","city":"Vantaa","lat":60.3131,"lon":24.9507,"accuracy":1},"01711":{"placeName":"Vantaa","state":"Uusimaa","city":"Vantaa","lat":60.3131,"lon":24.9507,"accuracy":1},"01717":{"placeName":"Noutopiste","state":"Uusimaa","city":"Vantaa","lat":60.3131,"lon":24.9507,"accuracy":1},"01720":{"placeName":"Vantaa","state":"Uusimaa","city":"Vantaa","lat":60.3131,"lon":24.9507,"accuracy":1},"01721":{"placeName":"Vantaa","state":"Uusimaa","city":"Vantaa","lat":60.3131,"lon":24.9507,"accuracy":1},"01730":{"placeName":"Vantaa","state":"Uusimaa","city":"Vantaa","lat":60.3131,"lon":24.9507,"accuracy":1},"01740":{"placeName":"Vantaa","state":"Uusimaa","city":"Vantaa","lat":60.3131,"lon":24.9507,"accuracy":1},"01741":{"placeName":"Vantaa","state":"Uusimaa","city":"Vantaa","lat":60.3131,"lon":24.9507,"accuracy":1},"01750":{"placeName":"Vantaa","state":"Uusimaa","city":"Vantaa","lat":60.3131,"lon":24.9507,"accuracy":1},"01760":{"placeName":"Vantaa","state":"Uusimaa","city":"Vantaa","lat":60.3131,"lon":24.9507,"accuracy":1},"01770":{"placeName":"Vantaa","state":"Uusimaa","city":"Vantaa","lat":60.3131,"lon":24.9507,"accuracy":1},"01800":{"placeName":"Klaukkala","state":"Uusimaa","city":"Nurmijärvi","lat":60.4618,"lon":24.7562,"accuracy":1},"01801":{"placeName":"Klaukkala","state":"Uusimaa","city":"Nurmijärvi","lat":60.4618,"lon":24.7562,"accuracy":1},"01805":{"placeName":"Smartpost","state":"Uusimaa","city":"Nurmijärvi","lat":60.4618,"lon":24.7562,"accuracy":1},"01810":{"placeName":"Luhtajoki","state":"Uusimaa","city":"Nurmijärvi","lat":60.4618,"lon":24.7562,"accuracy":1},"01820":{"placeName":"Klaukkala","state":"Uusimaa","city":"Nurmijärvi","lat":60.4618,"lon":24.7562,"accuracy":1},"01830":{"placeName":"Lepsämä","state":"Uusimaa","city":"Nurmijärvi","lat":60.4618,"lon":24.7562,"accuracy":1},"01840":{"placeName":"Klaukkala","state":"Uusimaa","city":"Nurmijärvi","lat":60.4618,"lon":24.7562,"accuracy":1},"01860":{"placeName":"Perttula","state":"Uusimaa","city":"Nurmijärvi","lat":60.4618,"lon":24.7562,"accuracy":4},"01900":{"placeName":"Nurmijärvi","state":"Uusimaa","city":"Nurmijärvi","lat":60.4295,"lon":24.7218,"accuracy":4},"01901":{"placeName":"Nurmijärvi","state":"Uusimaa","city":"Nurmijärvi","lat":60.4295,"lon":24.7218,"accuracy":4},"01905":{"placeName":"Smartpost","state":"Uusimaa","city":"Nurmijärvi","lat":60.4295,"lon":24.7218,"accuracy":1},"01940":{"placeName":"Palojoki","state":"Uusimaa","city":"Nurmijärvi","lat":60.4295,"lon":24.7218,"accuracy":1},"02010":{"placeName":"Lähitapiola","state":"Uusimaa","city":"Espoo","lat":60.1641,"lon":24.7136,"accuracy":null},"02014":{"placeName":"Microsoft","state":"Uusimaa","city":"Helsinki","lat":60.1136,"lon":25.0173,"accuracy":null},"02020":{"placeName":"Metsä","state":"Uusimaa","city":"Espoo","lat":60.1641,"lon":24.7136,"accuracy":null},"02022":{"placeName":"Nokia Solutions And Networks","state":"Uusimaa","city":"Espoo","lat":60.1641,"lon":24.7136,"accuracy":null},"02044":{"placeName":"Vtt","state":"Uusimaa","city":"Espoo","lat":60.1641,"lon":24.7136,"accuracy":null},"02066":{"placeName":"Docuscan","state":"Uusimaa","city":"Espoo","lat":60.1641,"lon":24.7136,"accuracy":null},"02070":{"placeName":"Espoon Kaupunki","state":"Uusimaa","city":"Espoo","lat":60.1641,"lon":24.7136,"accuracy":null},"02100":{"placeName":"Espoo","state":"Uusimaa","city":"Espoo","lat":60.1641,"lon":24.7136,"accuracy":null},"02101":{"placeName":"Espoo","state":"Uusimaa","city":"Espoo","lat":60.1641,"lon":24.7136,"accuracy":null},"02110":{"placeName":"Espoo","state":"Uusimaa","city":"Espoo","lat":60.1641,"lon":24.7136,"accuracy":null},"02120":{"placeName":"Espoo","state":"Uusimaa","city":"Espoo","lat":60.1641,"lon":24.7136,"accuracy":null},"02130":{"placeName":"Espoo","state":"Uusimaa","city":"Espoo","lat":60.1641,"lon":24.7136,"accuracy":null},"02131":{"placeName":"Espoo","state":"Uusimaa","city":"Espoo","lat":60.1641,"lon":24.7136,"accuracy":null},"02135":{"placeName":"Smartpost","state":"Uusimaa","city":"Espoo","lat":60.1641,"lon":24.7136,"accuracy":null},"02140":{"placeName":"Espoo","state":"Uusimaa","city":"Espoo","lat":60.1641,"lon":24.7136,"accuracy":null},"02150":{"placeName":"Espoo","state":"Uusimaa","city":"Espoo","lat":60.1641,"lon":24.7136,"accuracy":null},"02151":{"placeName":"Espoo","state":"Uusimaa","city":"Espoo","lat":60.1641,"lon":24.7136,"accuracy":null},"02155":{"placeName":"Smartpost","state":"Uusimaa","city":"Espoo","lat":60.1641,"lon":24.7136,"accuracy":null},"02160":{"placeName":"Espoo","state":"Uusimaa","city":"Espoo","lat":60.1641,"lon":24.7136,"accuracy":null},"02170":{"placeName":"Espoo","state":"Uusimaa","city":"Espoo","lat":60.1641,"lon":24.7136,"accuracy":null},"02171":{"placeName":"Espoo","state":"Uusimaa","city":"Espoo","lat":60.1641,"lon":24.7136,"accuracy":null},"02175":{"placeName":"Smartpost","state":"Uusimaa","city":"Espoo","lat":60.1641,"lon":24.7136,"accuracy":null},"02180":{"placeName":"Espoo","state":"Uusimaa","city":"Espoo","lat":60.1641,"lon":24.7136,"accuracy":null},"02187":{"placeName":"Noutopiste","state":"Uusimaa","city":"Espoo","lat":60.1641,"lon":24.7136,"accuracy":null},"02200":{"placeName":"Espoo","state":"Uusimaa","city":"Espoo","lat":60.1641,"lon":24.7136,"accuracy":null},"02201":{"placeName":"Espoo","state":"Uusimaa","city":"Espoo","lat":60.1641,"lon":24.7136,"accuracy":null},"02207":{"placeName":"Noutopiste","state":"Uusimaa","city":"Espoo","lat":60.1641,"lon":24.7136,"accuracy":null},"02210":{"placeName":"Espoo","state":"Uusimaa","city":"Espoo","lat":60.1641,"lon":24.7136,"accuracy":null},"02211":{"placeName":"Espoo","state":"Uusimaa","city":"Espoo","lat":60.1641,"lon":24.7136,"accuracy":null},"02215":{"placeName":"Smartpost","state":"Uusimaa","city":"Espoo","lat":60.1641,"lon":24.7136,"accuracy":null},"02217":{"placeName":"Noutopiste","state":"Uusimaa","city":"Espoo","lat":60.1641,"lon":24.7136,"accuracy":null},"02230":{"placeName":"Espoo","state":"Uusimaa","city":"Espoo","lat":60.1641,"lon":24.7136,"accuracy":null},"02231":{"placeName":"Espoo","state":"Uusimaa","city":"Espoo","lat":60.1641,"lon":24.7136,"accuracy":null},"02235":{"placeName":"Smartpost","state":"Uusimaa","city":"Espoo","lat":60.1641,"lon":24.7136,"accuracy":null},"02240":{"placeName":"Espoo","state":"Uusimaa","city":"Espoo","lat":60.1641,"lon":24.7136,"accuracy":null},"02241":{"placeName":"Espoo","state":"Uusimaa","city":"Espoo","lat":60.1641,"lon":24.7136,"accuracy":null},"02250":{"placeName":"Espoo","state":"Uusimaa","city":"Espoo","lat":60.1641,"lon":24.7136,"accuracy":null},"02260":{"placeName":"Espoo","state":"Uusimaa","city":"Espoo","lat":60.1641,"lon":24.7136,"accuracy":null},"02270":{"placeName":"Espoo","state":"Uusimaa","city":"Espoo","lat":60.1641,"lon":24.7136,"accuracy":null},"02271":{"placeName":"Espoo","state":"Uusimaa","city":"Espoo","lat":60.1641,"lon":24.7136,"accuracy":null},"02275":{"placeName":"Smartpost","state":"Uusimaa","city":"Espoo","lat":60.1641,"lon":24.7136,"accuracy":null},"02280":{"placeName":"Espoo","state":"Uusimaa","city":"Espoo","lat":60.1641,"lon":24.7136,"accuracy":null},"02285":{"placeName":"Smartpost","state":"Uusimaa","city":"Espoo","lat":60.1641,"lon":24.7136,"accuracy":null},"02290":{"placeName":"Espoo","state":"Uusimaa","city":"Espoo","lat":60.1641,"lon":24.7136,"accuracy":null},"02300":{"placeName":"Espoo","state":"Uusimaa","city":"Espoo","lat":60.1641,"lon":24.7136,"accuracy":null},"02320":{"placeName":"Espoo","state":"Uusimaa","city":"Espoo","lat":60.1641,"lon":24.7136,"accuracy":null},"02321":{"placeName":"Espoo","state":"Uusimaa","city":"Espoo","lat":60.1641,"lon":24.7136,"accuracy":null},"02325":{"placeName":"Smartpost","state":"Uusimaa","city":"Espoo","lat":60.1641,"lon":24.7136,"accuracy":null},"02330":{"placeName":"Espoo","state":"Uusimaa","city":"Espoo","lat":60.1641,"lon":24.7136,"accuracy":null},"02340":{"placeName":"Espoo","state":"Uusimaa","city":"Espoo","lat":60.1641,"lon":24.7136,"accuracy":null},"02360":{"placeName":"Espoo","state":"Uusimaa","city":"Espoo","lat":60.1641,"lon":24.7136,"accuracy":null},"02361":{"placeName":"Espoo","state":"Uusimaa","city":"Espoo","lat":60.1641,"lon":24.7136,"accuracy":null},"02365":{"placeName":"Smartpost","state":"Uusimaa","city":"Espoo","lat":60.1641,"lon":24.7136,"accuracy":null},"02380":{"placeName":"Espoo","state":"Uusimaa","city":"Espoo","lat":60.1641,"lon":24.7136,"accuracy":null},"02390":{"placeName":"Sarvvik","state":"Uusimaa","city":"Kirkkonummi","lat":60.0115,"lon":24.4959,"accuracy":null},"02400":{"placeName":"Kirkkonummi","state":"Uusimaa","city":"Kirkkonummi","lat":60.0115,"lon":24.4959,"accuracy":null},"02401":{"placeName":"Kirkkonummi","state":"Uusimaa","city":"Kirkkonummi","lat":60.0115,"lon":24.4959,"accuracy":null},"02405":{"placeName":"Smartpost","state":"Uusimaa","city":"Espoo","lat":60.1641,"lon":24.7136,"accuracy":null},"02410":{"placeName":"Kirkkonummi","state":"Uusimaa","city":"Kirkkonummi","lat":60.0115,"lon":24.4959,"accuracy":null},"02420":{"placeName":"Jorvas","state":"Uusimaa","city":"Kirkkonummi","lat":60.0115,"lon":24.4959,"accuracy":null},"02421":{"placeName":"Jorvas","state":"Uusimaa","city":"Kirkkonummi","lat":60.0115,"lon":24.4959,"accuracy":null},"02430":{"placeName":"Masala","state":"Uusimaa","city":"Kirkkonummi","lat":60.0115,"lon":24.4959,"accuracy":null},"02431":{"placeName":"Masala","state":"Uusimaa","city":"Kirkkonummi","lat":60.0115,"lon":24.4959,"accuracy":null},"02435":{"placeName":"Smartpost","state":"Uusimaa","city":"Kirkkonummi","lat":60.0115,"lon":24.4959,"accuracy":null},"02440":{"placeName":"Luoma","state":"Uusimaa","city":"Kirkkonummi","lat":60.0115,"lon":24.4959,"accuracy":null},"02450":{"placeName":"Sundsberg","state":"Uusimaa","city":"Kirkkonummi","lat":60.0115,"lon":24.4959,"accuracy":null},"02460":{"placeName":"Kantvik","state":"Uusimaa","city":"Kirkkonummi","lat":60.0115,"lon":24.4959,"accuracy":null},"02470":{"placeName":"Upinniemi","state":"Uusimaa","city":"Kirkkonummi","lat":60.0115,"lon":24.4959,"accuracy":null},"02471":{"placeName":"Upinniemi","state":"Uusimaa","city":"Kirkkonummi","lat":60.0115,"lon":24.4959,"accuracy":null},"02480":{"placeName":"Kirkkonummi","state":"Uusimaa","city":"Kirkkonummi","lat":60.0115,"lon":24.4959,"accuracy":null},"02490":{"placeName":"Pikkala","state":"Uusimaa","city":"Kirkkonummi","lat":60.0115,"lon":24.4959,"accuracy":null},"02510":{"placeName":"Oitmäki","state":"Uusimaa","city":"Kirkkonummi","lat":60.0115,"lon":24.4959,"accuracy":null},"02520":{"placeName":"Lapinkylä","state":"Uusimaa","city":"Kirkkonummi","lat":60.0115,"lon":24.4959,"accuracy":null},"02540":{"placeName":"Kylmälä","state":"Uusimaa","city":"Kirkkonummi","lat":60.0115,"lon":24.4959,"accuracy":null},"02550":{"placeName":"Evitskog","state":"Uusimaa","city":"Kirkkonummi","lat":60.0115,"lon":24.4959,"accuracy":null},"02570":{"placeName":"Siuntio Kk","state":"Uusimaa","city":"Siuntio","lat":60.1689,"lon":24.2193,"accuracy":null},"02580":{"placeName":"Siuntio","state":"Uusimaa","city":"Siuntio","lat":60.1689,"lon":24.2193,"accuracy":null},"02590":{"placeName":"Lappers","state":"Uusimaa","city":"Siuntio","lat":60.1689,"lon":24.2193,"accuracy":null},"02600":{"placeName":"Espoo","state":"Uusimaa","city":"Espoo","lat":60.1641,"lon":24.7136,"accuracy":null},"02601":{"placeName":"Espoo","state":"Uusimaa","city":"Espoo","lat":60.1641,"lon":24.7136,"accuracy":null},"02605":{"placeName":"Smartpost","state":"Uusimaa","city":"Espoo","lat":60.1641,"lon":24.7136,"accuracy":null},"02610":{"placeName":"Espoo","state":"Uusimaa","city":"Espoo","lat":60.1641,"lon":24.7136,"accuracy":null},"02611":{"placeName":"Espoo","state":"Uusimaa","city":"Espoo","lat":60.1641,"lon":24.7136,"accuracy":null},"02615":{"placeName":"Smartpost","state":"Uusimaa","city":"Espoo","lat":60.1641,"lon":24.7136,"accuracy":null},"02620":{"placeName":"Espoo","state":"Uusimaa","city":"Espoo","lat":60.1641,"lon":24.7136,"accuracy":null},"02621":{"placeName":"Espoo","state":"Uusimaa","city":"Espoo","lat":60.1641,"lon":24.7136,"accuracy":null},"02630":{"placeName":"Espoo","state":"Uusimaa","city":"Espoo","lat":60.1641,"lon":24.7136,"accuracy":null},"02631":{"placeName":"Espoo","state":"Uusimaa","city":"Espoo","lat":60.1641,"lon":24.7136,"accuracy":null},"02635":{"placeName":"Smartpost","state":"Uusimaa","city":"Espoo","lat":60.1641,"lon":24.7136,"accuracy":null},"02650":{"placeName":"Espoo","state":"Uusimaa","city":"Espoo","lat":60.1641,"lon":24.7136,"accuracy":null},"02657":{"placeName":"Noutopiste","state":"Uusimaa","city":"Espoo","lat":60.1641,"lon":24.7136,"accuracy":null},"02660":{"placeName":"Espoo","state":"Uusimaa","city":"Espoo","lat":60.1641,"lon":24.7136,"accuracy":null},"02661":{"placeName":"Espoo","state":"Uusimaa","city":"Espoo","lat":60.1641,"lon":24.7136,"accuracy":null},"02665":{"placeName":"Smartpost","state":"Uusimaa","city":"Espoo","lat":60.1641,"lon":24.7136,"accuracy":null},"02677":{"placeName":"Noutopiste","state":"Uusimaa","city":"Espoo","lat":60.1641,"lon":24.7136,"accuracy":null},"02680":{"placeName":"Espoo","state":"Uusimaa","city":"Espoo","lat":60.1641,"lon":24.7136,"accuracy":null},"02700":{"placeName":"Kauniainen","state":"Uusimaa","city":"Kauniainen","lat":60.2143,"lon":24.7148,"accuracy":null},"02701":{"placeName":"Kauniainen","state":"Uusimaa","city":"Kauniainen","lat":60.2143,"lon":24.7148,"accuracy":null},"02705":{"placeName":"Smartpost","state":"Uusimaa","city":"Kauniainen","lat":60.2143,"lon":24.7148,"accuracy":null},"02710":{"placeName":"Espoo","state":"Uusimaa","city":"Espoo","lat":60.1641,"lon":24.7136,"accuracy":null},"02711":{"placeName":"Espoo","state":"Uusimaa","city":"Espoo","lat":60.1641,"lon":24.7136,"accuracy":null},"02715":{"placeName":"Smartpost","state":"Uusimaa","city":"Espoo","lat":60.1641,"lon":24.7136,"accuracy":null},"02720":{"placeName":"Espoo","state":"Uusimaa","city":"Espoo","lat":60.1641,"lon":24.7136,"accuracy":null},"02725":{"placeName":"Smartpost","state":"Uusimaa","city":"Espoo","lat":60.1641,"lon":24.7136,"accuracy":null},"02730":{"placeName":"Espoo","state":"Uusimaa","city":"Espoo","lat":60.1641,"lon":24.7136,"accuracy":null},"02740":{"placeName":"Espoo","state":"Uusimaa","city":"Espoo","lat":60.1641,"lon":24.7136,"accuracy":null},"02750":{"placeName":"Espoo","state":"Uusimaa","city":"Espoo","lat":60.1641,"lon":24.7136,"accuracy":null},"02760":{"placeName":"Espoo","state":"Uusimaa","city":"Espoo","lat":60.1641,"lon":24.7136,"accuracy":null},"02761":{"placeName":"Espoo","state":"Uusimaa","city":"Espoo","lat":60.1641,"lon":24.7136,"accuracy":null},"02765":{"placeName":"Smartpost","state":"Uusimaa","city":"Espoo","lat":60.1641,"lon":24.7136,"accuracy":null},"02767":{"placeName":"Noutopiste","state":"Uusimaa","city":"Espoo","lat":60.1641,"lon":24.7136,"accuracy":null},"02770":{"placeName":"Espoo","state":"Uusimaa","city":"Espoo","lat":60.1641,"lon":24.7136,"accuracy":null},"02771":{"placeName":"Espoo","state":"Uusimaa","city":"Espoo","lat":60.1641,"lon":24.7136,"accuracy":null},"02775":{"placeName":"Smartpost","state":"Uusimaa","city":"Espoo","lat":60.1641,"lon":24.7136,"accuracy":null},"02780":{"placeName":"Espoo","state":"Uusimaa","city":"Espoo","lat":60.1641,"lon":24.7136,"accuracy":null},"02781":{"placeName":"Espoo","state":"Uusimaa","city":"Espoo","lat":60.1641,"lon":24.7136,"accuracy":null},"02810":{"placeName":"Espoo","state":"Uusimaa","city":"Espoo","lat":60.1641,"lon":24.7136,"accuracy":null},"02820":{"placeName":"Espoo","state":"Uusimaa","city":"Espoo","lat":60.1641,"lon":24.7136,"accuracy":null},"02860":{"placeName":"Espoo","state":"Uusimaa","city":"Espoo","lat":60.1641,"lon":24.7136,"accuracy":null},"02880":{"placeName":"Veikkola","state":"Uusimaa","city":"Kirkkonummi","lat":60.0115,"lon":24.4959,"accuracy":null},"02885":{"placeName":"Smartpost","state":"Uusimaa","city":"Espoo","lat":60.1641,"lon":24.7136,"accuracy":null},"02920":{"placeName":"Espoo","state":"Uusimaa","city":"Espoo","lat":60.1641,"lon":24.7136,"accuracy":null},"02921":{"placeName":"Espoo","state":"Uusimaa","city":"Espoo","lat":60.1641,"lon":24.7136,"accuracy":null},"02925":{"placeName":"Smartpost","state":"Uusimaa","city":"Espoo","lat":60.1641,"lon":24.7136,"accuracy":null},"02940":{"placeName":"Espoo","state":"Uusimaa","city":"Espoo","lat":60.1641,"lon":24.7136,"accuracy":null},"02941":{"placeName":"Espoo","state":"Uusimaa","city":"Espoo","lat":60.1641,"lon":24.7136,"accuracy":null},"02945":{"placeName":"Smartpost","state":"Uusimaa","city":"Espoo","lat":60.1641,"lon":24.7136,"accuracy":null},"02970":{"placeName":"Espoo","state":"Uusimaa","city":"Espoo","lat":60.1641,"lon":24.7136,"accuracy":null},"02980":{"placeName":"Espoo","state":"Uusimaa","city":"Espoo","lat":60.1641,"lon":24.7136,"accuracy":null},"03100":{"placeName":"Nummela","state":"Uusimaa","city":"Vihti","lat":60.4085,"lon":24.3968,"accuracy":null},"03101":{"placeName":"Nummela","state":"Uusimaa","city":"Vihti","lat":60.4085,"lon":24.3968,"accuracy":null},"03105":{"placeName":"Smartpost","state":"Uusimaa","city":"Vihti","lat":60.4085,"lon":24.3968,"accuracy":null},"03150":{"placeName":"Huhmari","state":"Uusimaa","city":"Vihti","lat":60.4085,"lon":24.3968,"accuracy":null},"03220":{"placeName":"Tervalampi","state":"Uusimaa","city":"Vihti","lat":60.4085,"lon":24.3968,"accuracy":null},"03250":{"placeName":"Ojakkala","state":"Uusimaa","city":"Vihti","lat":60.4085,"lon":24.3968,"accuracy":null},"03300":{"placeName":"Otalampi","state":"Uusimaa","city":"Vihti","lat":60.4085,"lon":24.3968,"accuracy":null},"03320":{"placeName":"Selki","state":"Uusimaa","city":"Vihti","lat":60.4085,"lon":24.3968,"accuracy":null},"03400":{"placeName":"Vihti","state":"Uusimaa","city":"Vihti","lat":60.4085,"lon":24.3968,"accuracy":null},"03405":{"placeName":"Smartpost","state":"Uusimaa","city":"Vihti","lat":60.4085,"lon":24.3968,"accuracy":null},"03430":{"placeName":"Jokikunta","state":"Uusimaa","city":"Vihti","lat":60.4085,"lon":24.3968,"accuracy":null},"03600":{"placeName":"Karkkila","state":"Uusimaa","city":"Karkkila","lat":60.5574,"lon":24.2363,"accuracy":null},"03601":{"placeName":"Karkkila","state":"Uusimaa","city":"Karkkila","lat":60.5574,"lon":24.2363,"accuracy":null},"03605":{"placeName":"Smartpost","state":"Uusimaa","city":"Karkkila","lat":60.5574,"lon":24.2363,"accuracy":null},"03620":{"placeName":"Karkkila","state":"Uusimaa","city":"Karkkila","lat":60.5574,"lon":24.2363,"accuracy":null},"03710":{"placeName":"Uusitalo","state":"Uusimaa","city":"Karkkila","lat":60.5574,"lon":24.2363,"accuracy":null},"03790":{"placeName":"Vihtijärvi","state":"Uusimaa","city":"Vihti","lat":60.4085,"lon":24.3968,"accuracy":null},"03810":{"placeName":"Ikkala","state":"Uusimaa","city":"Lohja","lat":60.3609,"lon":23.9438,"accuracy":null},"03850":{"placeName":"Pusula","state":"Uusimaa","city":"Lohja","lat":60.3609,"lon":23.9438,"accuracy":null},"03870":{"placeName":"Hyönölä","state":"Uusimaa","city":"Lohja","lat":60.3609,"lon":23.9438,"accuracy":null},"04020":{"placeName":"Woikoski","state":"Uusimaa","city":"Kerava","lat":60.3988,"lon":25.119,"accuracy":null},"04130":{"placeName":"Sipoo","state":"Uusimaa","city":"Sipoo","lat":60.2249,"lon":25.2863,"accuracy":null},"04131":{"placeName":"Sipoo","state":"Uusimaa","city":"Sipoo","lat":60.2249,"lon":25.2863,"accuracy":null},"04150":{"placeName":"Martinkylä","state":"Uusimaa","city":"Sipoo","lat":60.2249,"lon":25.2863,"accuracy":null},"04170":{"placeName":"Paippinen","state":"Uusimaa","city":"Sipoo","lat":60.2249,"lon":25.2863,"accuracy":null},"04200":{"placeName":"Kerava","state":"Uusimaa","city":"Kerava","lat":60.3988,"lon":25.119,"accuracy":null},"04201":{"placeName":"Kerava","state":"Uusimaa","city":"Kerava","lat":60.3988,"lon":25.119,"accuracy":null},"04205":{"placeName":"Smartpost","state":"Uusimaa","city":"Kerava","lat":60.3988,"lon":25.119,"accuracy":null},"04220":{"placeName":"Kerava","state":"Uusimaa","city":"Kerava","lat":60.3988,"lon":25.119,"accuracy":null},"04230":{"placeName":"Kerava","state":"Uusimaa","city":"Kerava","lat":60.3988,"lon":25.119,"accuracy":null},"04240":{"placeName":"Talma","state":"Uusimaa","city":"Sipoo","lat":60.2249,"lon":25.2863,"accuracy":null},"04250":{"placeName":"Kerava","state":"Uusimaa","city":"Kerava","lat":60.3988,"lon":25.119,"accuracy":null},"04251":{"placeName":"Kerava","state":"Uusimaa","city":"Kerava","lat":60.3988,"lon":25.119,"accuracy":null},"04260":{"placeName":"Kerava","state":"Uusimaa","city":"Kerava","lat":60.3988,"lon":25.119,"accuracy":null},"04261":{"placeName":"Kerava","state":"Uusimaa","city":"Kerava","lat":60.3988,"lon":25.119,"accuracy":null},"04300":{"placeName":"Tuusula","state":"Uusimaa","city":"Tuusula","lat":60.4522,"lon":25.0022,"accuracy":null},"04301":{"placeName":"Tuusula","state":"Uusimaa","city":"Tuusula","lat":60.4522,"lon":25.0022,"accuracy":null},"04305":{"placeName":"Smartpost","state":"Uusimaa","city":"Tuusula","lat":60.4522,"lon":25.0022,"accuracy":null},"04310":{"placeName":"Tuusula","state":"Uusimaa","city":"Tuusula","lat":60.4522,"lon":25.0022,"accuracy":null},"04320":{"placeName":"Tuusula","state":"Uusimaa","city":"Tuusula","lat":60.4522,"lon":25.0022,"accuracy":null},"04321":{"placeName":"Tuusula","state":"Uusimaa","city":"Tuusula","lat":60.4522,"lon":25.0022,"accuracy":null},"04325":{"placeName":"Smartpost","state":"Uusimaa","city":"Tuusula","lat":60.4522,"lon":25.0022,"accuracy":null},"04330":{"placeName":"Lahela","state":"Uusimaa","city":"Tuusula","lat":60.4522,"lon":25.0022,"accuracy":null},"04340":{"placeName":"Tuusula","state":"Uusimaa","city":"Tuusula","lat":60.4522,"lon":25.0022,"accuracy":null},"04350":{"placeName":"Nahkela","state":"Uusimaa","city":"Tuusula","lat":60.4522,"lon":25.0022,"accuracy":null},"04360":{"placeName":"Tuusula","state":"Uusimaa","city":"Tuusula","lat":60.4522,"lon":25.0022,"accuracy":null},"04370":{"placeName":"Rusutjärvi","state":"Uusimaa","city":"Tuusula","lat":60.4522,"lon":25.0022,"accuracy":null},"04380":{"placeName":"Tuusula","state":"Uusimaa","city":"Tuusula","lat":60.4522,"lon":25.0022,"accuracy":null},"04390":{"placeName":"Jäniksenlinna","state":"Uusimaa","city":"Tuusula","lat":60.4522,"lon":25.0022,"accuracy":null},"04400":{"placeName":"Järvenpää","state":"Uusimaa","city":"Järvenpää","lat":60.4804,"lon":25.0992,"accuracy":null},"04401":{"placeName":"Järvenpää","state":"Uusimaa","city":"Järvenpää","lat":60.4804,"lon":25.0992,"accuracy":null},"04405":{"placeName":"Smartpost","state":"Uusimaa","city":"Järvenpää","lat":60.4804,"lon":25.0992,"accuracy":null},"04410":{"placeName":"Järvenpää","state":"Uusimaa","city":"Järvenpää","lat":60.4804,"lon":25.0992,"accuracy":null},"04415":{"placeName":"Smartpost","state":"Uusimaa","city":"Järvenpää","lat":60.4804,"lon":25.0992,"accuracy":null},"04420":{"placeName":"Järvenpää","state":"Uusimaa","city":"Järvenpää","lat":60.4804,"lon":25.0992,"accuracy":null},"04430":{"placeName":"Järvenpää","state":"Uusimaa","city":"Järvenpää","lat":60.4804,"lon":25.0992,"accuracy":null},"04431":{"placeName":"Järvenpää","state":"Uusimaa","city":"Järvenpää","lat":60.4804,"lon":25.0992,"accuracy":null},"04435":{"placeName":"Smartpost","state":"Uusimaa","city":"Järvenpää","lat":60.4804,"lon":25.0992,"accuracy":null},"04440":{"placeName":"Järvenpää","state":"Uusimaa","city":"Järvenpää","lat":60.4804,"lon":25.0992,"accuracy":null},"04460":{"placeName":"Nummenkylä","state":"Uusimaa","city":"Järvenpää","lat":60.4804,"lon":25.0992,"accuracy":null},"04480":{"placeName":"Haarajoki","state":"Uusimaa","city":"Järvenpää","lat":60.4804,"lon":25.0992,"accuracy":null},"04500":{"placeName":"Kellokoski","state":"Uusimaa","city":"Tuusula","lat":60.4522,"lon":25.0022,"accuracy":null},"04501":{"placeName":"Kellokoski","state":"Uusimaa","city":"Tuusula","lat":60.4522,"lon":25.0022,"accuracy":null},"04530":{"placeName":"Ohkola","state":"Uusimaa","city":"Mäntsälä","lat":60.6611,"lon":25.279,"accuracy":null},"04600":{"placeName":"Mäntsälä","state":"Uusimaa","city":"Mäntsälä","lat":60.6611,"lon":25.279,"accuracy":null},"04601":{"placeName":"Mäntsälä","state":"Uusimaa","city":"Mäntsälä","lat":60.6611,"lon":25.279,"accuracy":null},"04605":{"placeName":"Smartpost","state":"Uusimaa","city":"Mäntsälä","lat":60.6611,"lon":25.279,"accuracy":null},"04620":{"placeName":"Mäntsälä","state":"Uusimaa","city":"Mäntsälä","lat":60.6611,"lon":25.279,"accuracy":null},"04630":{"placeName":"Sääksjärvi","state":"Uusimaa","city":"Mäntsälä","lat":60.6611,"lon":25.279,"accuracy":null},"04660":{"placeName":"Numminen","state":"Uusimaa","city":"Mäntsälä","lat":60.6611,"lon":25.279,"accuracy":null},"04680":{"placeName":"Hirvihaara","state":"Uusimaa","city":"Mäntsälä","lat":60.6611,"lon":25.279,"accuracy":null},"04740":{"placeName":"Sälinkää","state":"Uusimaa","city":"Mäntsälä","lat":60.6611,"lon":25.279,"accuracy":null},"04770":{"placeName":"Sahakylä","state":"Uusimaa","city":"Mäntsälä","lat":60.6611,"lon":25.279,"accuracy":null},"04820":{"placeName":"Kaukalampi","state":"Uusimaa","city":"Mäntsälä","lat":60.6611,"lon":25.279,"accuracy":null},"04840":{"placeName":"Hautjärvi","state":"Uusimaa","city":"Mäntsälä","lat":60.6611,"lon":25.279,"accuracy":null},"04920":{"placeName":"Saarentaus","state":"Uusimaa","city":"Mäntsälä","lat":60.6611,"lon":25.279,"accuracy":null},"04940":{"placeName":"Levanto","state":"Uusimaa","city":"Mäntsälä","lat":60.6611,"lon":25.279,"accuracy":null},"05100":{"placeName":"Röykkä","state":"Uusimaa","city":"Nurmijärvi","lat":60.4618,"lon":24.7562,"accuracy":null},"05200":{"placeName":"Rajamäki","state":"Uusimaa","city":"Nurmijärvi","lat":60.4618,"lon":24.7562,"accuracy":null},"05201":{"placeName":"Rajamäki","state":"Uusimaa","city":"Nurmijärvi","lat":60.4618,"lon":24.7562,"accuracy":null},"05205":{"placeName":"Smartpost","state":"Uusimaa","city":"Nurmijärvi","lat":60.4618,"lon":24.7562,"accuracy":null},"05250":{"placeName":"Kiljava","state":"Uusimaa","city":"Nurmijärvi","lat":60.4618,"lon":24.7562,"accuracy":null},"05400":{"placeName":"Jokela","state":"Uusimaa","city":"Tuusula","lat":60.4522,"lon":25.0022,"accuracy":null},"05401":{"placeName":"Jokela","state":"Uusimaa","city":"Tuusula","lat":60.4522,"lon":25.0022,"accuracy":null},"05405":{"placeName":"Smartpost","state":"Uusimaa","city":"Tuusula","lat":60.4522,"lon":25.0022,"accuracy":null},"05430":{"placeName":"Nuppulinna","state":"Uusimaa","city":"Tuusula","lat":60.4522,"lon":25.0022,"accuracy":null},"05440":{"placeName":"Hyvinkää","state":"Uusimaa","city":"Hyvinkää","lat":60.6091,"lon":24.82,"accuracy":null},"05450":{"placeName":"Nukari","state":"Uusimaa","city":"Nurmijärvi","lat":60.4618,"lon":24.7562,"accuracy":null},"05460":{"placeName":"Hyvinkää","state":"Uusimaa","city":"Hyvinkää","lat":60.6091,"lon":24.82,"accuracy":null},"05465":{"placeName":"Smartpost","state":"Uusimaa","city":"Hyvinkää","lat":60.6091,"lon":24.82,"accuracy":null},"05470":{"placeName":"Hyvinkää","state":"Uusimaa","city":"Hyvinkää","lat":60.6091,"lon":24.82,"accuracy":null},"05510":{"placeName":"Hyvinkää","state":"Uusimaa","city":"Hyvinkää","lat":60.6091,"lon":24.82,"accuracy":null},"05620":{"placeName":"Hyvinkää","state":"Uusimaa","city":"Hyvinkää","lat":60.6091,"lon":24.82,"accuracy":null},"05720":{"placeName":"Hyvinkää","state":"Uusimaa","city":"Hyvinkää","lat":60.6091,"lon":24.82,"accuracy":null},"05800":{"placeName":"Hyvinkää","state":"Uusimaa","city":"Hyvinkää","lat":60.6091,"lon":24.82,"accuracy":null},"05801":{"placeName":"Hyvinkää","state":"Uusimaa","city":"Hyvinkää","lat":60.6091,"lon":24.82,"accuracy":null},"05805":{"placeName":"Smartpost","state":"Uusimaa","city":"Hyvinkää","lat":60.6091,"lon":24.82,"accuracy":null},"05810":{"placeName":"Hyvinkää","state":"Uusimaa","city":"Hyvinkää","lat":60.6091,"lon":24.82,"accuracy":null},"05817":{"placeName":"Noutopiste","state":"Uusimaa","city":"Hyvinkää","lat":60.6091,"lon":24.82,"accuracy":null},"05820":{"placeName":"Hyvinkää","state":"Uusimaa","city":"Hyvinkää","lat":60.6091,"lon":24.82,"accuracy":null},"05830":{"placeName":"Hyvinkää","state":"Uusimaa","city":"Hyvinkää","lat":60.6091,"lon":24.82,"accuracy":null},"05831":{"placeName":"Hyvinkää","state":"Uusimaa","city":"Hyvinkää","lat":60.6091,"lon":24.82,"accuracy":null},"05837":{"placeName":"Noutopiste","state":"Uusimaa","city":"Hyvinkää","lat":60.6091,"lon":24.82,"accuracy":null},"05840":{"placeName":"Hyvinkää","state":"Uusimaa","city":"Hyvinkää","lat":60.6091,"lon":24.82,"accuracy":null},"05850":{"placeName":"Hyvinkää","state":"Uusimaa","city":"Hyvinkää","lat":60.6091,"lon":24.82,"accuracy":null},"05860":{"placeName":"Hyvinkää","state":"Uusimaa","city":"Hyvinkää","lat":60.6091,"lon":24.82,"accuracy":null},"05880":{"placeName":"Hyvinkää","state":"Uusimaa","city":"Hyvinkää","lat":60.6091,"lon":24.82,"accuracy":null},"05900":{"placeName":"Hyvinkää","state":"Uusimaa","city":"Hyvinkää","lat":60.6091,"lon":24.82,"accuracy":null},"05901":{"placeName":"Hyvinkää","state":"Uusimaa","city":"Hyvinkää","lat":60.6091,"lon":24.82,"accuracy":null},"05950":{"placeName":"Hyvinkää","state":"Uusimaa","city":"Hyvinkää","lat":60.6091,"lon":24.82,"accuracy":null},"07150":{"placeName":"Laukkoski","state":"Uusimaa","city":"Pornainen","lat":60.4823,"lon":25.3593,"accuracy":null},"07170":{"placeName":"Pornainen","state":"Uusimaa","city":"Pornainen","lat":60.4823,"lon":25.3593,"accuracy":null},"07171":{"placeName":"Pornainen","state":"Uusimaa","city":"Pornainen","lat":60.4823,"lon":25.3593,"accuracy":null},"07190":{"placeName":"Halkia","state":"Uusimaa","city":"Pornainen","lat":60.4823,"lon":25.3593,"accuracy":null},"08100":{"placeName":"Lohja","state":"Uusimaa","city":"Lohja","lat":60.3609,"lon":23.9438,"accuracy":null},"08101":{"placeName":"Lohja","state":"Uusimaa","city":"Lohja","lat":60.3609,"lon":23.9438,"accuracy":null},"08105":{"placeName":"Smartpost","state":"Uusimaa","city":"Lohja","lat":60.3609,"lon":23.9438,"accuracy":null},"08150":{"placeName":"Lohja","state":"Uusimaa","city":"Lohja","lat":60.3609,"lon":23.9438,"accuracy":null},"08151":{"placeName":"Lohja","state":"Uusimaa","city":"Lohja","lat":60.3609,"lon":23.9438,"accuracy":null},"08200":{"placeName":"Lohja","state":"Uusimaa","city":"Lohja","lat":60.3609,"lon":23.9438,"accuracy":null},"08201":{"placeName":"Lohja","state":"Uusimaa","city":"Lohja","lat":60.3609,"lon":23.9438,"accuracy":null},"08205":{"placeName":"Smartpost","state":"Uusimaa","city":"Lohja","lat":60.3609,"lon":23.9438,"accuracy":null},"08350":{"placeName":"Lohja","state":"Uusimaa","city":"Lohja","lat":60.3609,"lon":23.9438,"accuracy":null},"08360":{"placeName":"Lohja","state":"Uusimaa","city":"Lohja","lat":60.3609,"lon":23.9438,"accuracy":null},"08450":{"placeName":"Lohja","state":"Uusimaa","city":"Lohja","lat":60.3609,"lon":23.9438,"accuracy":null},"08480":{"placeName":"Lohja","state":"Uusimaa","city":"Lohja","lat":60.3609,"lon":23.9438,"accuracy":null},"08500":{"placeName":"Lohja","state":"Uusimaa","city":"Lohja","lat":60.3609,"lon":23.9438,"accuracy":null},"08501":{"placeName":"Lohja","state":"Uusimaa","city":"Lohja","lat":60.3609,"lon":23.9438,"accuracy":null},"08680":{"placeName":"Lohja","state":"Uusimaa","city":"Lohja","lat":60.3609,"lon":23.9438,"accuracy":null},"08700":{"placeName":"Lohja","state":"Uusimaa","city":"Lohja","lat":60.3609,"lon":23.9438,"accuracy":null},"08701":{"placeName":"Lohja","state":"Uusimaa","city":"Lohja","lat":60.3609,"lon":23.9438,"accuracy":null},"08800":{"placeName":"Lohja","state":"Uusimaa","city":"Lohja","lat":60.3609,"lon":23.9438,"accuracy":null},"09120":{"placeName":"Karjalohja","state":"Uusimaa","city":"Lohja","lat":60.3609,"lon":23.9438,"accuracy":null},"09220":{"placeName":"Sammatti","state":"Uusimaa","city":"Lohja","lat":60.3609,"lon":23.9438,"accuracy":null},"09430":{"placeName":"Saukkola","state":"Uusimaa","city":"Lohja","lat":60.3609,"lon":23.9438,"accuracy":null},"09520":{"placeName":"Millola","state":"Uusimaa","city":"Lohja","lat":60.3609,"lon":23.9438,"accuracy":null},"09630":{"placeName":"Koisjärvi","state":"Uusimaa","city":"Lohja","lat":60.3609,"lon":23.9438,"accuracy":null},"09810":{"placeName":"Nummi","state":"Uusimaa","city":"Lohja","lat":60.3609,"lon":23.9438,"accuracy":null},"09930":{"placeName":"Leppäkorpi","state":"Uusimaa","city":"Lohja","lat":60.3609,"lon":23.9438,"accuracy":null},"06100":{"placeName":"Porvoo","state":"Uusimaa","city":"Porvoo","lat":60.1858,"lon":25.7273,"accuracy":null},"06101":{"placeName":"Porvoo","state":"Uusimaa","city":"Porvoo","lat":60.1858,"lon":25.7273,"accuracy":null},"06105":{"placeName":"Smartpost","state":"Uusimaa","city":"Porvoo","lat":60.1858,"lon":25.7273,"accuracy":null},"06108":{"placeName":"Noutopiste","state":"Uusimaa","city":"Porvoo","lat":60.1858,"lon":25.7273,"accuracy":null},"06150":{"placeName":"Porvoo","state":"Uusimaa","city":"Porvoo","lat":60.1858,"lon":25.7273,"accuracy":null},"06151":{"placeName":"Porvoo","state":"Uusimaa","city":"Porvoo","lat":60.1858,"lon":25.7273,"accuracy":null},"06200":{"placeName":"Porvoo","state":"Uusimaa","city":"Porvoo","lat":60.1858,"lon":25.7273,"accuracy":null},"06400":{"placeName":"Porvoo","state":"Uusimaa","city":"Porvoo","lat":60.1858,"lon":25.7273,"accuracy":null},"06401":{"placeName":"Porvoo","state":"Uusimaa","city":"Porvoo","lat":60.1858,"lon":25.7273,"accuracy":null},"06450":{"placeName":"Porvoo","state":"Uusimaa","city":"Porvoo","lat":60.1858,"lon":25.7273,"accuracy":null},"06500":{"placeName":"Porvoo","state":"Uusimaa","city":"Porvoo","lat":60.1858,"lon":25.7273,"accuracy":null},"06530":{"placeName":"Kerkkoo","state":"Uusimaa","city":"Porvoo","lat":60.1858,"lon":25.7273,"accuracy":null},"06650":{"placeName":"Hamari","state":"Uusimaa","city":"Porvoo","lat":60.1858,"lon":25.7273,"accuracy":null},"06750":{"placeName":"Tolkkinen","state":"Uusimaa","city":"Porvoo","lat":60.1858,"lon":25.7273,"accuracy":null},"06830":{"placeName":"Kulloonkylä","state":"Uusimaa","city":"Porvoo","lat":60.1858,"lon":25.7273,"accuracy":null},"06850":{"placeName":"Kulloo","state":"Uusimaa","city":"Porvoo","lat":60.1858,"lon":25.7273,"accuracy":null},"06880":{"placeName":"Kärrby","state":"Uusimaa","city":"Porvoo","lat":60.1858,"lon":25.7273,"accuracy":null},"06950":{"placeName":"Emäsalo","state":"Uusimaa","city":"Porvoo","lat":60.1858,"lon":25.7273,"accuracy":null},"07110":{"placeName":"Hinthaara","state":"Uusimaa","city":"Porvoo","lat":60.1858,"lon":25.7273,"accuracy":null},"07130":{"placeName":"Anttila","state":"Uusimaa","city":"Porvoo","lat":60.1858,"lon":25.7273,"accuracy":null},"07220":{"placeName":"Kaarenkylä","state":"Uusimaa","city":"Porvoo","lat":60.1858,"lon":25.7273,"accuracy":null},"07230":{"placeName":"Monninkylä","state":"Uusimaa","city":"Askola","lat":60.543,"lon":25.6142,"accuracy":null},"07231":{"placeName":"Monninkylä","state":"Uusimaa","city":"Askola","lat":60.543,"lon":25.6142,"accuracy":null},"07280":{"placeName":"Ilola","state":"Uusimaa","city":"Porvoo","lat":60.1858,"lon":25.7273,"accuracy":null},"07310":{"placeName":"Sannainen","state":"Uusimaa","city":"Porvoo","lat":60.1858,"lon":25.7273,"accuracy":null},"07320":{"placeName":"Jakari","state":"Uusimaa","city":"Porvoo","lat":60.1858,"lon":25.7273,"accuracy":null},"07350":{"placeName":"Gäddrag","state":"Uusimaa","city":"Porvoo","lat":60.1858,"lon":25.7273,"accuracy":null},"07360":{"placeName":"Tirmo","state":"Uusimaa","city":"Porvoo","lat":60.1858,"lon":25.7273,"accuracy":null},"07370":{"placeName":"Pellinki","state":"Uusimaa","city":"Porvoo","lat":60.1858,"lon":25.7273,"accuracy":null},"07390":{"placeName":"Suurpellinki","state":"Uusimaa","city":"Porvoo","lat":60.1858,"lon":25.7273,"accuracy":null},"07410":{"placeName":"Krċkö","state":"Uusimaa","city":"Porvoo","lat":60.1858,"lon":25.7273,"accuracy":null},"07450":{"placeName":"Voolahti","state":"Uusimaa","city":"Porvoo","lat":60.1858,"lon":25.7273,"accuracy":null},"07500":{"placeName":"Askola","state":"Uusimaa","city":"Askola","lat":60.543,"lon":25.6142,"accuracy":null},"07510":{"placeName":"Vakkola","state":"Uusimaa","city":"Askola","lat":60.543,"lon":25.6142,"accuracy":null},"07530":{"placeName":"Onkimaa","state":"Uusimaa","city":"Askola","lat":60.543,"lon":25.6142,"accuracy":null},"07550":{"placeName":"Torppi","state":"Uusimaa","city":"Pukkila","lat":60.6529,"lon":25.5828,"accuracy":null},"07560":{"placeName":"Pukkila","state":"Uusimaa","city":"Pukkila","lat":60.6529,"lon":25.5828,"accuracy":null},"07565":{"placeName":"Kantele","state":"Uusimaa","city":"Pukkila","lat":60.6529,"lon":25.5828,"accuracy":null},"07580":{"placeName":"Tiilää","state":"Uusimaa","city":"Askola","lat":60.543,"lon":25.6142,"accuracy":null},"07590":{"placeName":"Huuvari","state":"Uusimaa","city":"Askola","lat":60.543,"lon":25.6142,"accuracy":null},"07600":{"placeName":"Myrskylä","state":"Uusimaa","city":"Myrskylä","lat":60.6421,"lon":25.8428,"accuracy":null},"07601":{"placeName":"Myrskylä","state":"Uusimaa","city":"Myrskylä","lat":60.6421,"lon":25.8428,"accuracy":null},"07680":{"placeName":"Juornaankylä","state":"Uusimaa","city":"Askola","lat":60.543,"lon":25.6142,"accuracy":null},"07690":{"placeName":"Kankkila","state":"Uusimaa","city":"Myrskylä","lat":60.6421,"lon":25.8428,"accuracy":null},"07700":{"placeName":"Koskenkylän Saha","state":"Uusimaa","city":"Loviisa","lat":60.3664,"lon":26.2407,"accuracy":null},"07720":{"placeName":"Malmgċrd","state":"Uusimaa","city":"Loviisa","lat":60.3664,"lon":26.2407,"accuracy":null},"07740":{"placeName":"Pernajan Vanhakylä","state":"Uusimaa","city":"Loviisa","lat":60.3664,"lon":26.2407,"accuracy":null},"07750":{"placeName":"Isnäs","state":"Uusimaa","city":"Loviisa","lat":60.3664,"lon":26.2407,"accuracy":null},"07780":{"placeName":"Härkäpää","state":"Uusimaa","city":"Loviisa","lat":60.3664,"lon":26.2407,"accuracy":null},"07800":{"placeName":"Lapinjärvi","state":"Uusimaa","city":"Lapinjärvi","lat":60.6374,"lon":26.1983,"accuracy":null},"07810":{"placeName":"Ingermaninkylä","state":"Uusimaa","city":"Lapinjärvi","lat":60.6374,"lon":26.1983,"accuracy":null},"07820":{"placeName":"Porlammi","state":"Uusimaa","city":"Lapinjärvi","lat":60.6374,"lon":26.1983,"accuracy":null},"07830":{"placeName":"Pukaro","state":"Uusimaa","city":"Lapinjärvi","lat":60.6374,"lon":26.1983,"accuracy":null},"07840":{"placeName":"Lindkoski","state":"Uusimaa","city":"Lapinjärvi","lat":60.6374,"lon":26.1983,"accuracy":null},"07850":{"placeName":"Heikinkylä","state":"Uusimaa","city":"Lapinjärvi","lat":60.6374,"lon":26.1983,"accuracy":null},"07870":{"placeName":"Skinnarby","state":"Uusimaa","city":"Loviisa","lat":60.3664,"lon":26.2407,"accuracy":null},"07880":{"placeName":"Liljendal","state":"Uusimaa","city":"Loviisa","lat":60.3664,"lon":26.2407,"accuracy":null},"07890":{"placeName":"Mickelspiltom","state":"Uusimaa","city":"Loviisa","lat":60.3664,"lon":26.2407,"accuracy":null},"07900":{"placeName":"Loviisa","state":"Uusimaa","city":"Loviisa","lat":60.3664,"lon":26.2407,"accuracy":null},"07901":{"placeName":"Loviisa","state":"Uusimaa","city":"Loviisa","lat":60.3664,"lon":26.2407,"accuracy":null},"07905":{"placeName":"Smartpost","state":"Uusimaa","city":"Loviisa","lat":60.3664,"lon":26.2407,"accuracy":null},"07910":{"placeName":"Valko","state":"Uusimaa","city":"Loviisa","lat":60.3664,"lon":26.2407,"accuracy":null},"07920":{"placeName":"Loviisa","state":"Uusimaa","city":"Loviisa","lat":60.3664,"lon":26.2407,"accuracy":null},"07930":{"placeName":"Pernaja","state":"Uusimaa","city":"Loviisa","lat":60.3664,"lon":26.2407,"accuracy":null},"07940":{"placeName":"Loviisa","state":"Uusimaa","city":"Loviisa","lat":60.3664,"lon":26.2407,"accuracy":null},"07945":{"placeName":"Kuggom","state":"Uusimaa","city":"Loviisa","lat":60.3664,"lon":26.2407,"accuracy":null},"07955":{"placeName":"Tesjoki","state":"Uusimaa","city":"Loviisa","lat":60.3664,"lon":26.2407,"accuracy":null},"07960":{"placeName":"Ahvenkoski","state":"Uusimaa","city":"Loviisa","lat":60.3664,"lon":26.2407,"accuracy":null},"07970":{"placeName":"Ruotsinpyhtää","state":"Uusimaa","city":"Loviisa","lat":60.3664,"lon":26.2407,"accuracy":null},"07980":{"placeName":"Kuninkaankylä","state":"Uusimaa","city":"Loviisa","lat":60.3664,"lon":26.2407,"accuracy":null},"07990":{"placeName":"Ruotsinkylä","state":"Uusimaa","city":"Loviisa","lat":60.3664,"lon":26.2407,"accuracy":null}}
